{"cities":[{"ID_city":1,"rus_name":"\u041c\u0438\u043d\u0441\u043a","lat_name":"minsk"},{"ID_city":2,"rus_name":"\u0412\u0438\u0442\u0435\u0431\u0441\u043a","lat_name":"vitebsk"},{"ID_city":3,"rus_name":"\u0413\u0440\u043e\u0434\u043d\u043e","lat_name":"grodno"},{"ID_city":4,"rus_name":"\u0413\u043e\u043c\u0435\u043b\u044c","lat_name":"gomel"},{"ID_city":5,"rus_name":"\u041c\u043e\u0433\u0438\u043b\u0435\u0432","lat_name":"mogilev"},{"ID_city":6,"rus_name":"\u0411\u0440\u0435\u0441\u0442","lat_name":"brest"},{"ID_city":7,"rus_name":"\u0411\u0430\u0440\u0430\u043d\u043e\u0432\u0438\u0447\u0438","lat_name":"baranovichi-brest"},{"ID_city":8,"rus_name":"\u0411\u0435\u0440\u0435\u0437\u0430","lat_name":"bereza-brest"},{"ID_city":9,"rus_name":"\u0413\u0430\u043d\u0446\u0435\u0432\u0438\u0447\u0438","lat_name":"gancevichi-brest"},{"ID_city":10,"rus_name":"\u0414\u0440\u043e\u0433\u0438\u0447\u0438\u043d","lat_name":"drogichin-brest"},{"ID_city":11,"rus_name":"\u0416\u0430\u0431\u0438\u043d\u043a\u0430","lat_name":"zhabinka-brest"},{"ID_city":12,"rus_name":"\u0418\u0432\u0430\u043d\u043e\u0432\u043e","lat_name":"ivanovo-brest"},{"ID_city":13,"rus_name":"\u0418\u0432\u0430\u0446\u0435\u0432\u0438\u0447\u0438","lat_name":"ivacevichi-brest"},{"ID_city":14,"rus_name":"\u041a\u0430\u043c\u0435\u043d\u0435\u0446","lat_name":"kamenec-brest"},{"ID_city":15,"rus_name":"\u041a\u043e\u0431\u0440\u0438\u043d","lat_name":"kobrin-brest"},{"ID_city":16,"rus_name":"\u041b\u0443\u043d\u0438\u043d\u0435\u0446","lat_name":"luninec-brest"},{"ID_city":17,"rus_name":"\u041b\u044f\u0445\u043e\u0432\u0438\u0447\u0438","lat_name":"lyahovichi-brest"},{"ID_city":18,"rus_name":"\u041c\u0430\u043b\u043e\u0440\u0438\u0442\u0430","lat_name":"malorita-brest"},{"ID_city":19,"rus_name":"\u041f\u0438\u043d\u0441\u043a","lat_name":"pinsk-brest"},{"ID_city":20,"rus_name":"\u041f\u0440\u0443\u0436\u0430\u043d\u044b","lat_name":"pruzhany-brest"},{"ID_city":21,"rus_name":"\u0421\u0442\u043e\u043b\u0438\u043d","lat_name":"stolin-brest"},{"ID_city":22,"rus_name":"\u0411\u0435\u0448\u0435\u043d\u043a\u043e\u0432\u0438\u0447\u0438","lat_name":"beshenkovichi-viteb"},{"ID_city":23,"rus_name":"\u0411\u0440\u0430\u0441\u043b\u0430\u0432","lat_name":"braslav-viteb"},{"ID_city":24,"rus_name":"\u0412\u0435\u0440\u0445\u043d\u0435\u0434\u0432\u0438\u043d\u0441\u043a","lat_name":"verhnedvinsk-viteb"},{"ID_city":25,"rus_name":"\u0413\u043b\u0443\u0431\u043e\u043a\u043e\u0435","lat_name":"glubokoe-viteb"},{"ID_city":26,"rus_name":"\u0413\u043e\u0440\u043e\u0434\u043e\u043a","lat_name":"gorodok-viteb"},{"ID_city":27,"rus_name":"\u0414\u043e\u043a\u0448\u0438\u0446\u044b","lat_name":"dokshicy-viteb"},{"ID_city":28,"rus_name":"\u0414\u0443\u0431\u0440\u043e\u0432\u043d\u043e","lat_name":"dubrovno-viteb"},{"ID_city":29,"rus_name":"\u041b\u0435\u043f\u0435\u043b\u044c","lat_name":"lepel-viteb"},{"ID_city":30,"rus_name":"\u041b\u0438\u043e\u0437\u043d\u043e","lat_name":"liozno-viteb"},{"ID_city":31,"rus_name":"\u041c\u0438\u043e\u0440\u044b","lat_name":"miory-viteb"},{"ID_city":32,"rus_name":"\u041d\u043e\u0432\u043e\u043f\u043e\u043b\u043e\u0446\u043a","lat_name":"novopolock-viteb"},{"ID_city":33,"rus_name":"\u041e\u0440\u0448\u0430","lat_name":"orsha-viteb"},{"ID_city":34,"rus_name":"\u041f\u043e\u043b\u043e\u0446\u043a","lat_name":"polock-viteb"},{"ID_city":35,"rus_name":"\u041f\u043e\u0441\u0442\u0430\u0432\u044b","lat_name":"postavy-viteb"},{"ID_city":36,"rus_name":"\u0420\u043e\u0441\u0441\u043e\u043d\u044b","lat_name":"rossony-viteb"},{"ID_city":37,"rus_name":"\u0421\u0435\u043d\u043d\u043e","lat_name":"senno-viteb"},{"ID_city":38,"rus_name":"\u0422\u043e\u043b\u043e\u0447\u0438\u043d","lat_name":"tolochin-viteb"},{"ID_city":39,"rus_name":"\u0423\u0448\u0430\u0447\u0438","lat_name":"ushachi-viteb"},{"ID_city":40,"rus_name":"\u0427\u0430\u0448\u043d\u0438\u043a\u0438","lat_name":"chashniki-viteb"},{"ID_city":41,"rus_name":"\u0428\u0430\u0440\u043a\u043e\u0432\u0449\u0438\u043d\u0430","lat_name":"sharkovschina-viteb"},{"ID_city":42,"rus_name":"\u0428\u0443\u043c\u0438\u043b\u0438\u043d\u043e","lat_name":"shumilino-viteb"},{"ID_city":43,"rus_name":"\u0411\u0440\u0430\u0433\u0438\u043d","lat_name":"bragin-gomel"},{"ID_city":44,"rus_name":"\u0411\u0443\u0434\u0430-\u041a\u043e\u0448\u0435\u043b\u0435\u0432\u043e","lat_name":"buda-koshelevo-gomel"},{"ID_city":45,"rus_name":"\u0412\u0435\u0442\u043a\u0430","lat_name":"vetka-gomel"},{"ID_city":46,"rus_name":"\u0414\u043e\u0431\u0440\u0443\u0448","lat_name":"dobrush-gomel"},{"ID_city":47,"rus_name":"\u0415\u043b\u044c\u0441\u043a","lat_name":"elsk-gomel"},{"ID_city":48,"rus_name":"\u0416\u0438\u0442\u043a\u043e\u0432\u0438\u0447\u0438","lat_name":"zhitkovichi-gomel"},{"ID_city":49,"rus_name":"\u0416\u043b\u043e\u0431\u0438\u043d","lat_name":"zhlobin-gomel"},{"ID_city":50,"rus_name":"\u041a\u0430\u043b\u0438\u043d\u043a\u043e\u0432\u0438\u0447\u0438","lat_name":"kalinkovichi-gomel"},{"ID_city":51,"rus_name":"\u041a\u043e\u0440\u043c\u0430","lat_name":"korma-gomel"},{"ID_city":52,"rus_name":"\u041b\u0435\u043b\u044c\u0447\u0438\u0446\u044b","lat_name":"lelchicy-gomel"},{"ID_city":53,"rus_name":"\u041b\u043e\u0435\u0432","lat_name":"loev-gomel"},{"ID_city":54,"rus_name":"\u041c\u043e\u0437\u044b\u0440\u044c","lat_name":"mozyr-gomel"},{"ID_city":55,"rus_name":"\u041d\u0430\u0440\u043e\u0432\u043b\u044f","lat_name":"narovlya-gomel"},{"ID_city":56,"rus_name":"\u041e\u043a\u0442\u044f\u0431\u0440\u044c\u0441\u043a\u0438\u0439","lat_name":"oktyabrskiy-gomel"},{"ID_city":57,"rus_name":"\u041f\u0435\u0442\u0440\u0438\u043a\u043e\u0432","lat_name":"petrikov-gomel"},{"ID_city":58,"rus_name":"\u0420\u0435\u0447\u0438\u0446\u0430","lat_name":"rechica-gomel"},{"ID_city":59,"rus_name":"\u0420\u043e\u0433\u0430\u0447\u0435\u0432","lat_name":"rogachev-gomel"},{"ID_city":60,"rus_name":"\u0421\u0432\u0435\u0442\u043b\u043e\u0433\u043e\u0440\u0441\u043a","lat_name":"svetlogorsk-gomel"},{"ID_city":61,"rus_name":"\u0425\u043e\u0439\u043d\u0438\u043a\u0438","lat_name":"hoyniki-gomel"},{"ID_city":62,"rus_name":"\u0427\u0435\u0447\u0435\u0440\u0441\u043a","lat_name":"chechersk-gomel"},{"ID_city":63,"rus_name":"\u0411\u043e\u043b\u044c\u0448\u0430\u044f \u0411\u0435\u0440\u0435\u0441\u0442\u043e\u0432\u0438\u0446\u0430","lat_name":"bolshaya-berestovica-grodn"},{"ID_city":64,"rus_name":"\u0412\u043e\u043b\u043a\u043e\u0432\u044b\u0441\u043a","lat_name":"volkovysk-grodn"},{"ID_city":65,"rus_name":"\u0412\u043e\u0440\u043e\u043d\u043e\u0432\u043e","lat_name":"voronovo-grodn"},{"ID_city":66,"rus_name":"\u0414\u044f\u0442\u043b\u043e\u0432\u043e","lat_name":"dyatlovo-grodn"},{"ID_city":67,"rus_name":"\u0417\u0435\u043b\u044c\u0432\u0430","lat_name":"zelva-grodn"},{"ID_city":68,"rus_name":"\u0418\u0432\u044c\u0435","lat_name":"ive-grodn"},{"ID_city":69,"rus_name":"\u041a\u043e\u0440\u0435\u043b\u0438\u0447\u0438","lat_name":"korelichi-grodn"},{"ID_city":70,"rus_name":"\u041b\u0438\u0434\u0430","lat_name":"lida-grodn"},{"ID_city":71,"rus_name":"\u041c\u043e\u0441\u0442\u044b","lat_name":"mosty-grodn"},{"ID_city":72,"rus_name":"\u041d\u043e\u0432\u043e\u0433\u0440\u0443\u0434\u043e\u043a","lat_name":"novogrudok-grodn"},{"ID_city":73,"rus_name":"\u041e\u0441\u0442\u0440\u043e\u0432\u0435\u0446","lat_name":"ostrovec-grodn"},{"ID_city":74,"rus_name":"\u041e\u0448\u043c\u044f\u043d\u044b","lat_name":"oshmyany-grodn"},{"ID_city":75,"rus_name":"\u0421\u0432\u0438\u0441\u043b\u043e\u0447\u044c","lat_name":"svisloch-grodn"},{"ID_city":76,"rus_name":"\u0421\u043b\u043e\u043d\u0438\u043c","lat_name":"slonim-grodn"},{"ID_city":77,"rus_name":"\u0421\u043c\u043e\u0440\u0433\u043e\u043d\u044c","lat_name":"smorgon-grodn"},{"ID_city":78,"rus_name":"\u0429\u0443\u0447\u0438\u043d","lat_name":"schuchin-grodn"},{"ID_city":79,"rus_name":"\u0411\u0435\u0440\u0435\u0437\u0438\u043d\u043e","lat_name":"berezino-minsk"},{"ID_city":80,"rus_name":"\u0411\u043e\u0440\u0438\u0441\u043e\u0432","lat_name":"borisov-minsk"},{"ID_city":81,"rus_name":"\u0412\u0438\u043b\u0435\u0439\u043a\u0430","lat_name":"vileyka-minsk"},{"ID_city":82,"rus_name":"\u0412\u043e\u043b\u043e\u0436\u0438\u043d","lat_name":"volozhin-minsk"},{"ID_city":83,"rus_name":"\u0414\u0437\u0435\u0440\u0436\u0438\u043d\u0441\u043a","lat_name":"dzerzhinsk-minsk"},{"ID_city":84,"rus_name":"\u0416\u043e\u0434\u0438\u043d\u043e","lat_name":"zhodino-minsk"},{"ID_city":85,"rus_name":"\u0417\u0430\u0441\u043b\u0430\u0432\u043b\u044c","lat_name":"zaslavl-minsk"},{"ID_city":86,"rus_name":"\u041a\u043b\u0435\u0446\u043a","lat_name":"kleck-minsk"},{"ID_city":87,"rus_name":"\u041a\u043e\u043f\u044b\u043b\u044c","lat_name":"kopyl-minsk"},{"ID_city":88,"rus_name":"\u041a\u0440\u0443\u043f\u043a\u0438","lat_name":"krupki-minsk"},{"ID_city":89,"rus_name":"\u041b\u043e\u0433\u043e\u0439\u0441\u043a","lat_name":"logoysk-minsk"},{"ID_city":90,"rus_name":"\u041b\u044e\u0431\u0430\u043d\u044c","lat_name":"lyuban-minsk"},{"ID_city":91,"rus_name":"\u041c\u0430\u0440\u044c\u0438\u043d\u0430 \u0413\u043e\u0440\u043a\u0430","lat_name":"marina-gorka-minsk"},{"ID_city":92,"rus_name":"\u041c\u043e\u043b\u043e\u0434\u0435\u0447\u043d\u043e","lat_name":"molodechno-minsk"},{"ID_city":93,"rus_name":"\u041c\u044f\u0434\u0435\u043b\u044c","lat_name":"myadel-minsk"},{"ID_city":94,"rus_name":"\u041d\u0435\u0441\u0432\u0438\u0436","lat_name":"nesvizh-minsk"},{"ID_city":95,"rus_name":"\u0421\u043b\u0443\u0446\u043a","lat_name":"sluck-minsk"},{"ID_city":96,"rus_name":"\u0421\u043c\u043e\u043b\u0435\u0432\u0438\u0447\u0438","lat_name":"smolevichi-minsk"},{"ID_city":97,"rus_name":"\u0421\u043e\u043b\u0438\u0433\u043e\u0440\u0441\u043a","lat_name":"soligorsk-minsk"},{"ID_city":98,"rus_name":"\u0421\u0442\u0430\u0440\u044b\u0435 \u0414\u043e\u0440\u043e\u0433\u0438","lat_name":"starye-dorogi-minsk"},{"ID_city":99,"rus_name":"\u0421\u0442\u043e\u043b\u0431\u0446\u044b","lat_name":"stolbcy-minsk"},{"ID_city":100,"rus_name":"\u0423\u0437\u0434\u0430","lat_name":"uzda-minsk"},{"ID_city":101,"rus_name":"\u0427\u0435\u0440\u0432\u0435\u043d\u044c","lat_name":"cherven-minsk"},{"ID_city":102,"rus_name":"\u0411\u0435\u043b\u044b\u043d\u0438\u0447\u0438","lat_name":"belynichi-mogil"},{"ID_city":103,"rus_name":"\u0411\u043e\u0431\u0440\u0443\u0439\u0441\u043a","lat_name":"bobruysk-mogil"},{"ID_city":104,"rus_name":"\u0411\u044b\u0445\u043e\u0432","lat_name":"byhov-mogil"},{"ID_city":105,"rus_name":"\u0413\u043b\u0443\u0441\u043a","lat_name":"glusk-mogil"},{"ID_city":106,"rus_name":"\u0413\u043e\u0440\u043a\u0438","lat_name":"gorki-mogil"},{"ID_city":107,"rus_name":"\u0414\u0440\u0438\u0431\u0438\u043d","lat_name":"dribin-mogil"},{"ID_city":108,"rus_name":"\u041a\u0438\u0440\u043e\u0432\u0441\u043a","lat_name":"kirovsk-mogil"},{"ID_city":109,"rus_name":"\u041a\u043b\u0438\u043c\u043e\u0432\u0438\u0447\u0438","lat_name":"klimovichi-mogil"},{"ID_city":110,"rus_name":"\u041a\u043b\u0438\u0447\u0435\u0432","lat_name":"klichev-mogil"},{"ID_city":111,"rus_name":"\u041a\u043e\u0441\u0442\u044e\u043a\u043e\u0432\u0438\u0447\u0438","lat_name":"kostyukovichi-mogil"},{"ID_city":112,"rus_name":"\u041a\u0440\u0430\u0441\u043d\u043e\u043f\u043e\u043b\u044c\u0435","lat_name":"krasnopole-mogil"},{"ID_city":113,"rus_name":"\u041a\u0440\u0438\u0447\u0435\u0432","lat_name":"krichev-mogil"},{"ID_city":114,"rus_name":"\u041a\u0440\u0443\u0433\u043b\u043e\u0435","lat_name":"krugloe-mogil"},{"ID_city":115,"rus_name":"\u041c\u0441\u0442\u0438\u0441\u043b\u0430\u0432\u043b\u044c","lat_name":"mstislavl-mogil"},{"ID_city":116,"rus_name":"\u041e\u0441\u0438\u043f\u043e\u0432\u0438\u0447\u0438","lat_name":"osipovichi-mogil"},{"ID_city":117,"rus_name":"\u0421\u043b\u0430\u0432\u0433\u043e\u0440\u043e\u0434","lat_name":"slavgorod-mogil"},{"ID_city":118,"rus_name":"\u0425\u043e\u0442\u0438\u043c\u0441\u043a","lat_name":"hotimsk-mogil"},{"ID_city":119,"rus_name":"\u0427\u0430\u0443\u0441\u044b","lat_name":"chausy-mogil"},{"ID_city":120,"rus_name":"\u0427\u0435\u0440\u0438\u043a\u043e\u0432","lat_name":"cherikov-mogil"},{"ID_city":121,"rus_name":"\u0428\u043a\u043b\u043e\u0432","lat_name":"shklov-mogil"}],"departments":[{"index":200400,"name":"\u041c\u0438\u043d\u0441\u043a-\u0426\u0435\u043d\u0442\u0440","director":" ","adres":"\u0412\u043e\u043a\u0437\u0430\u043b\u044c\u043d\u0430\u044f, 22","ID_city":1,"code":"+37517","tel1":" ","tel2":" ","tel3":" ","latitude":53.889232,"longitude":27.55106},{"index":202132,"name":"\u0413\u0440\u0443\u043f\u043f\u0430 \u043f\u043e \u043e\u043a\u0430\u0437\u0430\u043d\u0438\u044e \u0443\u0441\u043b\u0443\u0433 \u043a\u043e\u0440\u043f\u043e\u0440\u0430\u0442\u0438\u0432\u043d\u044b\u043c \u043a\u043b\u0438\u0435\u043d\u0442\u0430\u043c","director":"\u041c\u0435\u043b\u0430\u0445 \u0421.\u041c.","adres":"\u043f\u0440.\u041c\u0438\u0440\u0430, \u0434.9","ID_city":84,"code":"+3751775","tel1":"80177579722","tel2":"80177579722 ","tel3":" ","latitude":54.095886,"longitude":28.313191},{"index":202149,"name":"\u0411\u0438\u0437\u043d\u0435\u0441-\u041f\u043e\u0447\u0442\u0430","director":"\u0410\u0444\u0451\u0440\u043e\u0432\u0430 \u0421.\u0414.","adres":"\u041a\u043e\u0437\u043b\u043e\u0432\u0430 31","ID_city":97,"code":"+375174","tel1":"22-03-60","tel2":" ","tel3":" ","latitude":52.784527,"longitude":27.545509},{"index":210001,"name":"\u041e\u041f\u0421-1","director":"\u0420\u044b\u043d\u043a\u0435\u0432\u0438\u0447 \u0413\u0430\u043b\u0438\u043d\u0430 \u041a\u043b\u0435\u043c\u0435\u043d\u0442\u044c\u0435\u0432\u043d\u0430 ","adres":"\u0443\u043b. \u041a\u043e\u0441\u043c\u043e\u043d\u0430\u0432\u0442\u043e\u0432, 6","ID_city":2,"code":"+37521(2)","tel1":"36-40-94","tel2":"36-40-94 ","tel3":"36-44-41","latitude":55.193813,"longitude":30.186376},{"index":210002,"name":"\u041e\u041f\u0421-2","director":"\u0411\u0430\u0440\u0441\u0443\u043a\u043e\u0432\u0430 \u041d\u0430\u0442\u0430\u043b\u044c\u044f \u041f\u0435\u0442\u0440\u043e\u0432\u043d\u0430","adres":"\u0443\u043b. \u0413\u043e\u0440\u044c\u043a\u043e\u0433\u043e, 67\/1","ID_city":2,"code":"+37521(2)","tel1":"34-19-65","tel2":"34-19-75 ","tel3":"34-06-83","latitude":55.173509,"longitude":30.15127},{"index":210004,"name":"\u041e\u041f\u0421-4","director":"\u041f\u0430\u0432\u043b\u044e\u0447\u043a\u043e\u0432\u0430 \u041d\u0430\u0434\u0435\u0436\u0434\u0430 \u0420\u043e\u043c\u0430\u043d\u043e\u0432\u043d\u0430","adres":"\u0443\u043b. 5-\u044f \u041a\u043e\u043e\u043f\u0435\u0440\u0430\u0442\u0438\u0432\u043d\u0430\u044f","ID_city":2,"code":"+37521(2)","tel1":"34-38-21","tel2":"- ","tel3":"-","latitude":55.177205,"longitude":30.172865},{"index":210005,"name":"\u041e\u041f\u0421-5","director":"\u041a\u0430\u0440\u0430\u043f\u0443\u0437\u043e\u0432\u0430 \u041d\u0430\u0442\u0430\u043b\u044c\u044f \u041f\u0430\u0432\u043b\u043e\u0432\u043d\u0430","adres":"\u0443\u043b.\u041b\u0435\u043d\u0438\u043d\u0430, 32","ID_city":2,"code":"+37521(2)","tel1":"36-47-91","tel2":"- ","tel3":"-","latitude":55.193258,"longitude":30.20578},{"index":210007,"name":"\u041e\u041f\u0421-7","director":"\u0410\u043d\u0442\u043e\u043d\u043e\u0432\u0430 \u0410\u043d\u043d\u0430 \u0412\u043b\u0430\u0434\u0438\u043c\u0438\u0440\u043e\u0432\u043d\u0430","adres":"\u0443\u043b. \u0417\u0435\u043b\u0435\u043d\u043e\u0433\u0443\u0440\u0441\u043a\u0430\u044f, 10","ID_city":2,"code":"+37521(2)","tel1":"27-05-35","tel2":"- ","tel3":"-","latitude":55.164181,"longitude":30.187777},{"index":210008,"name":"\u041e\u041f\u0421-8","director":"\u0428\u0430\u043b\u0438\u0448\u0435\u0432\u0430 \u0413\u0430\u043b\u0438\u043d\u0430 \u0412\u043b\u0430\u0434\u0438\u043c\u0438\u0440\u043e\u0432\u043d\u0430","adres":"\u0443\u043b. 2-\u044f \u0411\u044f\u0434\u0443\u043b\u0438, 3","ID_city":2,"code":"+37521(2)","tel1":"34-07-71","tel2":"- ","tel3":"34-00-11","latitude":55.168712,"longitude":30.121832},{"index":210009,"name":"\u041e\u041f\u0421-9","director":"\u041f\u0435\u0442\u0440\u0430\u0448\u043a\u0435\u0432\u0438\u0447\u0422\u0430\u0442\u044c\u044f\u043d\u0430 \u0410\u043b\u0435\u043a\u0441\u0430\u043d\u0434\u0440\u043e\u0432\u043d\u0430","adres":"\u043f\u0440-\u0442 \u0424\u0440\u0443\u043d\u0437\u0435, 46","ID_city":2,"code":"+37521(2)","tel1":"26-19-80","tel2":"26-19-80 ","tel3":"26-19-79","latitude":55.194388,"longitude":30.231965},{"index":210010,"name":"\u041e\u041f\u0421-10","director":"\u0424\u0440\u043e\u043b\u043e\u0432\u0430 \u0422\u0430\u0442\u044c\u044f\u043d\u0430 \u041d\u0438\u043a\u043e\u043b\u0430\u0435\u0432\u043d\u0430","adres":"\u0443\u043b. \u0413\u043e\u0433\u043e\u043b\u044f, 6","ID_city":2,"code":"+37521(2)","tel1":"36-36-62","tel2":"- ","tel3":"-","latitude":55.189676,"longitude":30.210765},{"index":210013,"name":"\u041e\u041f\u0421-13","director":"\u0424\u0435\u0434\u044f\u043a\u043e\u0432\u0430 \u0420\u0430\u0438\u0441\u0430 \u0424\u0435\u0434\u043e\u0440\u043e\u0432\u043d\u0430","adres":"\u0443\u043b. \u041b\u0435\u043d\u0438\u043d\u0433\u0440\u0430\u0434\u0441\u043a\u0430\u044f, 87","ID_city":2,"code":"+37521(2)","tel1":"36-56-49","tel2":"- ","tel3":"-","latitude":55.204346,"longitude":30.166883},{"index":210015,"name":"\u041e\u041f\u0421-15","director":"\u041d\u0430\u0439\u0434\u0435\u043d \u0415\u043b\u0435\u043d\u0430 \u041b\u0435\u043e\u043d\u0438\u0434\u043e\u0432\u043d\u0430","adres":"\u043f\u0440-\u0442 \u041c\u043e\u0441\u043a\u043e\u0432\u0441\u043a\u0438\u0439, 10","ID_city":2,"code":"+37521(2)","tel1":"47-98-26","tel2":"47-30-29, 47 ","tel3":"47-20-05","latitude":55.182526,"longitude":30.206606},{"index":210016,"name":"\u041e\u041f\u0421-16","director":"\u0426\u0432\u0438\u043b\u0438\u043a\u043e\u0432\u0430 \u0422\u0430\u0442\u044c\u044f\u043d\u0430 \u0412\u043b\u0430\u0434\u0438\u043c\u0438\u0440\u043e\u0432\u043d\u0430","adres":"\u0443\u043b.\u0412\u043e\u043b\u043e\u0434\u0430\u0440\u0441\u043a\u043e\u0433\u043e, 35 \u0430","ID_city":2,"code":"+37521(2)","tel1":"52-48-71","tel2":"- ","tel3":"52-47-74","latitude":55.209699,"longitude":30.211475},{"index":210017,"name":"\u041e\u041f\u0421-17","director":"\u0417\u043d\u0430\u0440\u043e\u043a \u041e\u043b\u044c\u0433\u0430 \u0421\u0442\u0435\u043f\u0430\u043d\u043e\u0432\u043d\u0430","adres":"\u0443\u043b. \u0413\u0430\u0433\u0430\u0440\u0438\u043d\u0430, 41","ID_city":2,"code":"+37521(2)","tel1":"23-29-95","tel2":"- ","tel3":"-","latitude":55.211363,"longitude":30.228947},{"index":210020,"name":"\u041e\u041f\u0421-20","director":"\u041b\u0435\u0432\u0447\u0435\u043d\u043a\u043e \u0415\u0432\u0433\u0435\u043d\u0438\u0439 \u041b\u0435\u043e\u043d\u0438\u0434\u043e\u0432\u0438\u0447","adres":"\u0443\u043b. \u0413\u0443\u0440\u0438\u043d\u043e\u0432\u0430, 45","ID_city":2,"code":"+37521(2)","tel1":"26-85-54","tel2":"- ","tel3":"-","latitude":55.162206,"longitude":30.13766},{"index":210021,"name":"\u041e\u041f\u0421-21","director":"\u041c\u0435\u0434\u0432\u0435\u0434\u0435\u0432\u0430 \u0421\u0432\u0435\u0442\u043b\u0430\u043d\u0430 \u0418\u043b\u044c\u0438\u043d\u0438\u0447\u043d\u0430","adres":"\u0443\u043b. \u0422\u0438\u0442\u043e\u0432\u0430, 136\u0431","ID_city":2,"code":"+37521(2)","tel1":"36-36-24","tel2":"- ","tel3":"-","latitude":55.195884,"longitude":30.151746},{"index":210022,"name":"\u041e\u041f\u0421-22","director":"\u0411\u0435\u043b\u0430\u043d \u0422\u0430\u0442\u044c\u044f\u043d\u0430 \u0410\u043b\u0435\u043a\u0441\u0430\u043d\u0434\u0440\u043e\u0432\u043d\u0430","adres":"\u043f\u0440-\u0442 \u0421\u0442\u0440\u043e\u0438\u0442\u0435\u043b\u0435\u0439, 12","ID_city":2,"code":"+37521(2)","tel1":"57-92-26","tel2":"- ","tel3":"57-81-59","latitude":55.171447,"longitude":30.222785},{"index":210023,"name":"\u041e\u041f\u0421-23","director":"\u041f\u0440\u043e\u0442\u0430\u0441\u043e\u0432\u0430 \u0415\u043b\u0435\u043d\u0430 \u0410\u043b\u0435\u043a\u0441\u0430\u043d\u0434\u0440\u043e\u0432\u043d\u0430","adres":"\u043f\u0440-\u0442 \u0424\u0440\u0443\u043d\u0437\u0435, 14","ID_city":2,"code":"+37521(2)","tel1":"60-15-22","tel2":"- ","tel3":"60-15-23","latitude":55.193052,"longitude":30.217188},{"index":210024,"name":"\u041e\u041f\u0421-24","director":"\u0410\u043a\u0443\u043b\u043e\u0432\u0430 \u0412\u0438\u043a\u0442\u043e\u0440\u0438\u044f \u0410\u043b\u0435\u043a\u0441\u0435\u0435\u0432\u043d\u0430","adres":"\u043f\u0440-\u0442 \u041c\u043e\u0441\u043a\u043e\u0432\u0441\u043a\u0438\u0439, 1\/2","ID_city":2,"code":"+37521(2)","tel1":"36-29-04","tel2":"- ","tel3":"-","latitude":55.181729,"longitude":30.204216},{"index":210026,"name":"\u041e\u041f\u0421-26","director":"\u041d\u043e\u0432\u043e\u0435\u043d\u043e\u043a \u041d\u0438\u043d\u0430 \u0418\u0432\u0430\u043d\u043e\u0432\u043d\u0430","adres":"\u041b\u0435\u043d\u0438\u043d\u0430, 52\/13","ID_city":2,"code":"+37521(2)","tel1":"36-26-04","tel2":"36-24-53 ","tel3":"-","latitude":55.199527,"longitude":30.206902},{"index":210027,"name":"\u041e\u041f\u0421-27","director":"\u041a\u043e\u0440\u043e\u043b\u0435\u0432\u0430 \u0410\u043b\u0435\u0441\u044f \u0412\u043b\u0430\u0434\u0438\u043c\u0438\u0440\u043e\u0432\u043d\u0430","adres":"\u043f\u0440-\u0442 \u0421\u0442\u0440\u043e\u0438\u0442\u0435\u043b\u0435\u0439, 6","ID_city":2,"code":"+37521(2)","tel1":"27-08-64","tel2":"- ","tel3":"27-01-38","latitude":55.173221,"longitude":30.206328},{"index":210029,"name":"\u041e\u041f\u0421-29","director":"\u0411\u0430\u0440\u0430\u043d\u0447\u0438\u043a\u043e\u0432\u0430 \u0415\u043b\u0435\u043d\u0430 \u041a\u043e\u043d\u0441\u0442\u0430\u043d\u0442\u0438\u043d\u043e\u0432\u043d\u0430","adres":"\u041f\u0440\u0430\u0432\u0434\u044b. 55","ID_city":2,"code":"+37521(2)","tel1":"47-59-53","tel2":"47-59-53 ","tel3":"47-91-84","latitude":55.184351,"longitude":30.229729},{"index":210032,"name":"\u041e\u041f\u0421-32","director":"\u0428\u043a\u0440\u0430\u0431\u043e \u0422\u0430\u0442\u044c\u044f\u043d\u0430 \u0410\u043d\u0434\u0440\u0435\u0435\u0432\u043d\u0430","adres":"\u0427\u043a\u0430\u043b\u043e\u0432\u0430, 34","ID_city":2,"code":"+37521(2)","tel1":"57-49-46","tel2":"57-49-46 ","tel3":"57-01-60","latitude":55.167668,"longitude":30.212337},{"index":210033,"name":"\u041e\u041f\u0421-33","director":"\u041a\u0443\u0440\u0435\u0448\u043e\u0432\u0430 \u0418\u0440\u0438\u043d\u0430 \u0412\u043b\u0430\u0434\u0438\u043c\u0438\u0440\u043e\u0432\u043d\u0430","adres":"\u0424\u0440\u0443\u043d\u0437\u0435, 90\u0430","ID_city":2,"code":"+37521(2)","tel1":"23-75-20","tel2":"- ","tel3":"24-31-43","latitude":55.1965,"longitude":30.248324},{"index":210034,"name":"\u041e\u041f\u0421-34","director":"\u0418\u0441\u0430\u0435\u0432\u0430 \u042e\u043b\u0438\u044f \u0412\u0438\u043a\u0442\u043e\u0440\u043e\u0432\u043d\u0430","adres":"\u041b\u0435\u043d\u0438\u043d\u0433\u0440\u0430\u0434\u0441\u043a\u0430\u044f, 140","ID_city":2,"code":"+37521(2)","tel1":"35-55-26","tel2":"- ","tel3":"-","latitude":55.217532,"longitude":30.127222},{"index":210035,"name":"\u041e\u041f\u0421-35","director":"\u0427\u0443\u043b\u044c\u0431\u0430 \u0422\u0430\u0442\u044c\u044f\u043d\u0430 \u042f\u043a\u043e\u0432\u043b\u0435\u0432\u043d\u0430","adres":"\u043f\u0440-\u0442 \u041c\u043e\u0441\u043a\u043e\u0432\u0441\u043a\u0438\u0439, 74 \u043a\u043e\u0440.1","ID_city":2,"code":"+37521(2)","tel1":"47-57-41","tel2":"- ","tel3":"48-70-20","latitude":55.17701,"longitude":30.240455},{"index":210037,"name":"\u041e\u041f\u0421-37","director":"\u0421\u043e\u043b\u043e\u0432\u044c\u0435\u0432\u0430 \u0421\u0432\u0435\u0442\u043b\u0430\u043d\u0430 \u0412\u0438\u043a\u0442\u043e\u0440\u043e\u0432\u043d\u0430","adres":"\u041e\u0431\u043b\u0430\u0441\u0442\u043d\u0430\u044f \u0431\u043e\u043b\u044c\u043d\u0438\u0446\u0430","ID_city":2,"code":"+37521(2)","tel1":"57-53-22","tel2":"- ","tel3":"-","latitude":55.184757,"longitude":30.203848},{"index":210038,"name":"\u041e\u041f\u0421-38","director":"\u0425\u043e\u0431\u0438\u043d\u0430 \u041e\u043a\u0441\u0430\u043d\u0430 \u041c\u0438\u0445\u0430\u0439\u043b\u043e\u0432\u043d\u0430","adres":"\u043f\u0440-\u0442 \u041c\u043e\u0441\u043a\u043e\u0432\u0441\u043a\u0438\u0439, 47 \u043a\u043e\u0440.1","ID_city":2,"code":"+37521(2)","tel1":"57-03-92","tel2":"57-03-92 ","tel3":"57-38-65","latitude":55.175787,"longitude":30.238856},{"index":210040,"name":"\u041e\u041f\u0421-40","director":"\u0421\u043c\u0443\u043b\u044c\u0441\u043a\u0430\u044f \u0421\u0432\u0435\u0442\u043b\u0430\u043d\u0430 \u0411\u043e\u0440\u0438\u0441\u043e\u0432\u043d\u0430","adres":"\u0443\u043b. \u0413\u0430\u0433\u0430\u0440\u0438\u043d\u0430, 160","ID_city":2,"code":"+37521(2)","tel1":"23-24-35","tel2":"- ","tel3":"-","latitude":55.223093,"longitude":30.24739},{"index":210041,"name":"\u041e\u041f\u0421-41","director":"\u0411\u0430\u0440\u0441\u0443\u043a\u043e\u0432\u0430 \u041d\u0430\u0442\u0430\u043b\u044c\u044f \u0412\u043b\u0430\u0434\u0438\u043c\u0438\u0440\u043e\u0432\u043d\u0430","adres":"\u0443\u043b. \u0427\u043a\u0430\u043b\u043e\u0432\u0430, 47 \u043a\u043e\u0440.1","ID_city":2,"code":"+37521(2)","tel1":"53-15-26","tel2":"- ","tel3":"25-07-50","latitude":55.159321,"longitude":30.21143},{"index":210101,"name":"\u0421\u041e\u041a\u041a","director":"\u0426\u0430\u0446\u0430\u0440\u0435\u043d\u043a\u043e \u041d\u0430\u0442\u0430\u043b\u044c\u044f \u0415\u0432\u0433\u0435\u043d\u044c\u0435\u0432\u043d\u0430","adres":"\u0443\u043b.\u041a\u043e\u0441\u043c\u043e\u043d\u0430\u0432\u0442\u043e\u0432,6","ID_city":2,"code":"+37521(2)","tel1":"36-27-49","tel2":"36-55-87 ","tel3":"36-30-03","latitude":55.193813,"longitude":30.186376},{"index":211040,"name":"\u0433. \u0414\u0443\u0431\u0440\u043e\u0432\u043d\u043e","director":"\u041c\u0438\u043d\u0438\u043d\u0430 \u041d\u0438\u043d\u0430 \u041d\u0438\u043a\u043e\u043b\u0430\u0435\u0432\u043d\u0430","adres":"\u0443\u043b. \u041a\u043e\u043c\u0441\u043e\u043c\u043e\u043b\u044c\u0441\u043a\u0430\u044f, 15","ID_city":28,"code":"+3752137","tel1":"41340","tel2":"41340 ","tel3":"41340","latitude":54.571924,"longitude":30.691202},{"index":211070,"name":"\u0422\u043e\u043b\u043e\u0447\u0438\u043d \u0420\u0423\u041f\u0421","director":"\u0416\u0438\u0440\u043a\u0435\u0432\u0438\u0447 \u0418\u0440\u0438\u043d\u0430 \u0413\u0435\u043d\u0430\u0434\u044c\u0435\u0432\u043d\u0430","adres":"40 \u043b\u0435\u0442 \u043e\u043a\u0442\u044f\u0431\u0440\u044f 7","ID_city":38,"code":"+3752136","tel1":"2-13-50","tel2":" ","tel3":" ","latitude":54.409372,"longitude":29.693902},{"index":211173,"name":"\u041e\u041f\u0421 3","director":"\u0413\u0440\u0438\u0433\u043e\u0440\u0435\u043d\u043a\u043e \u041e\u043b\u044c\u0433\u0430 \u0413\u0435\u043d\u043d\u0430\u0434\u044c\u0435\u0432\u043d\u0430","adres":"\u0443\u043b. \u041f\u0430\u0440\u0442\u0438\u0437\u0430\u043d\u0441\u043a\u0430\u044f 10","ID_city":29,"code":"+3752132","tel1":"4-80-71","tel2":" ","tel3":" ","latitude":54.871233,"longitude":28.721403},{"index":211180,"name":"\u041b\u0435\u043f\u0435\u043b\u044c \u0420\u0423\u041f\u0421","director":" ","adres":"\u0433.\u041b\u0435\u043f\u0435\u043b\u044c, \u043f\u043b. \u0421\u0432\u043e\u0431\u043e\u0434\u044b 13\/1","ID_city":29,"code":"+3752132","tel1":" ","tel2":" ","tel3":" ","latitude":54.874263,"longitude":28.690196},{"index":211200,"name":"\u041b\u0438\u043e\u0437\u043d\u043e \u0420\u0423\u041f\u0421","director":"\u0421\u0435\u0440\u0436\u0430\u043d\u043a\u043e\u0432\u0430 \u041d\u0430\u0442\u0430\u043b\u044c\u044f \u041f\u0435\u0442\u0440\u043e\u0432\u043d\u0430","adres":"\u0433.\u043f.\u041b\u0438\u043e\u0437\u043d\u043e \u0443\u043b.\u041b\u0435\u043d\u0438\u043d\u0430 86","ID_city":30,"code":"+3752138","tel1":"4-13-50","tel2":"4-12-73 ","tel3":"4-12-73","latitude":55.025596,"longitude":30.795047},{"index":211220,"name":"\u041b\u0438\u043e\u0437\u043d\u043e-2","director":"\u041f\u0448\u0435\u043d\u0438\u0447\u043d\u0438\u043a\u043e\u0432\u0430 \u0413\u0430\u043b\u0438\u043d\u0430 \u041d\u0438\u043a\u043e\u043b\u0430\u0432\u043d\u0430","adres":"\u041b\u0438\u043e\u0437\u043d\u043e \u041b\u0435\u043d\u0438\u043d\u0430 86","ID_city":30,"code":"+3752138","tel1":"4-12-73","tel2":"4-12-73 ","tel3":"4-12-73","latitude":55.021349,"longitude":30.800931},{"index":211221,"name":"\u041b\u0438\u043e\u0437\u043d\u043e-1","director":"\u0412\u0430\u0441\u0438\u043b\u044c\u043a\u043e\u0432\u0430 \u0412\u0430\u043b\u0435\u043d\u0442\u0438\u043d\u0430 \u041f\u0435\u0442\u0440\u043e\u0432\u043d\u0430","adres":"\u041b\u0438\u043e\u0437\u043d\u043e \u0443\u043b.\u0414\u043e\u0431\u0440\u043e\u043c\u044b\u0441\u043b\u044f\u043d\u0441\u043a\u0430\u044f \u0434.13\u0410","ID_city":30,"code":"+3752138","tel1":"4-12-27","tel2":"- ","tel3":"4-12-27","latitude":55.021349,"longitude":30.800931},{"index":211350,"name":"\u0411\u0435\u0448\u0435\u043d\u043a\u043e\u0432\u0438\u0447\u0438 \u0420\u0423\u041f\u0421","director":" ","adres":"\u0443\u043b. \u0421\u043e\u0432\u0435\u0442\u0441\u043a\u0430\u044f, 24","ID_city":22,"code":"+3752131","tel1":"8-02131-4135","tel2":"8-02131-4121 ","tel3":" ","latitude":55.041477,"longitude":29.456486},{"index":211381,"name":"\u041e\u0420\u0428\u0410 1","director":"\u0413\u041e\u041b\u041b\u0415\u0420 \u0413\u0430\u043b\u0438\u043d\u0430 \u0415\u043c\u0435\u043b\u044c\u044f\u043d\u043e\u0432\u043d\u0430","adres":"\u041c\u041e\u041b\u041e\u041a\u041e\u0412\u0410 25","ID_city":33,"code":"+375216","tel1":"31-52-76","tel2":" ","tel3":"31-52-76","latitude":54.517263,"longitude":30.378957},{"index":211382,"name":"\u041e\u0420\u0428\u0410 2","director":"\u0420\u041e\u0416\u0410\u041d\u0421\u041a\u0410\u042f \u0420.\u041d.","adres":"\u041f\u0420-\u0422 \u0422\u0415\u041a\u0421\u0422\u0418\u041b\u042c\u0429\u0418\u041a\u041e\u0412, 20","ID_city":33,"code":"+375216","tel1":"23-22-29","tel2":" ","tel3":"23-27-23","latitude":54.497781,"longitude":30.404676},{"index":211383,"name":"\u041e\u0420\u0428\u0410 3","director":"\u041f\u0420\u041e\u041d\u0418\u041d\u0410 \u041b \u0412","adres":"\u0416\/\u0414 \u0412\u041e\u041a\u0417\u0410\u041b","ID_city":33,"code":"+375216","tel1":"20-38-89","tel2":" ","tel3":" ","latitude":54.509695,"longitude":30.423648},{"index":211385,"name":"\u041e\u0420\u0428\u0410 5","director":"\u0427\u0435\u0431\u043e\u0442\u0430\u0440\u0435\u0432\u0430 \u0412.\u0421.","adres":"1 \u041c\u0410\u042f, 66","ID_city":33,"code":"+375216","tel1":"21-94-67","tel2":" ","tel3":" ","latitude":54.528592,"longitude":30.428948},{"index":211388,"name":"\u041e\u0420\u0428\u0410 8","director":"\u041a\u043e\u0442\u043e\u0432\u0430 \u041d.\u0410.","adres":"\u041b\u0415\u041d\u0418\u041d\u0410, 172","ID_city":33,"code":"+375216","tel1":"21-91-53","tel2":" ","tel3":"21-91-53","latitude":54.531675,"longitude":30.442189},{"index":211389,"name":"\u041e\u0420\u0428\u0410 9","director":"\u0421\u043b\u0438\u0436\u043e\u0432\u0430 \u0415. \u041d.","adres":"\u0424\u041b\u0415\u0420\u041e\u0412\u0410, 6\u0410","ID_city":33,"code":"+375216","tel1":"26-42-38","tel2":" ","tel3":"26-42-38","latitude":54.488933,"longitude":30.425642},{"index":211390,"name":"\u041e\u0420\u0428\u0410 10","director":"\u0428\u0435\u043b\u0443\u0445\u0430 \u041b.\u0412.","adres":"\u041c\u0418\u0420\u0410, 74","ID_city":33,"code":"+375216","tel1":"31-35-13","tel2":" ","tel3":"31-35-13","latitude":54.513192,"longitude":30.40755},{"index":211392,"name":"\u041e\u0420\u0428\u0410 12","director":"\u0426\u044b\u0433\u0430\u043d\u043a\u043e\u0432\u0430 \u0420\u0430\u0438\u0441\u0430 \u0418\u0432\u0430\u043d\u043e\u0432\u043d\u0430","adres":"\u041c\u0418\u0420\u0410,40","ID_city":33,"code":"+375216","tel1":"21-57-37","tel2":" ","tel3":"21-57-37","latitude":54.512382,"longitude":30.408242},{"index":211394,"name":"\u041e\u0420\u0428\u0410 14","director":"\u0412\u0438\u0442\u043a\u043e\u0432\u0441\u043a\u0430\u044f \u041b.\u041d.","adres":"\u0417\u0410\u0420\u0415\u0427\u041d\u0410\u042f, 13","ID_city":33,"code":"+375216","tel1":"26-68-48","tel2":" ","tel3":"26-68-48","latitude":54.547867,"longitude":30.430879},{"index":211396,"name":"\u041e\u0420\u0428\u0410 16","director":"\u041b\u042e\u0426\u041a\u0410\u042f \u0421 \u0412","adres":"\u0421\u0415\u041c\u0415\u041d\u041e\u0412\u0410, 17","ID_city":33,"code":"+375216","tel1":"22-31-62","tel2":" ","tel3":"22-31-62","latitude":54.486548,"longitude":30.416749},{"index":211401,"name":"\u041f\u043e\u043b\u043e\u0446\u043a-1","director":"\u0410\u043d\u0434\u0440\u0435\u0435\u0432\u0430 \u0420\u0430\u0438\u0441\u0430 \u0415\u0432\u0433\u0435\u043d\u044c\u0435\u0432\u043d\u0430","adres":"\u0443\u043b. \u0413\u043e\u0433\u043e\u043b\u044f, 29","ID_city":34,"code":"+375214","tel1":"42-40-80","tel2":" ","tel3":" ","latitude":55.489866,"longitude":28.778312},{"index":211402,"name":"\u041f\u043e\u043b\u043e\u0446\u043a -2","director":"\u041c\u0430\u0442\u0438\u0435\u0432\u0441\u043a\u0430\u044f \u041e\u043b\u044c\u0433\u0430 \u041c\u0438\u0445\u0430\u0439\u043b\u043e\u0432\u043d\u0430","adres":"\u0443\u043b. \u0414\u0437\u0435\u0440\u0436\u0438\u043d\u0441\u043a\u043e\u0433\u043e, 56","ID_city":34,"code":"+375214","tel1":"43-95-40","tel2":"41-31-47 ","tel3":" ","latitude":55.478929,"longitude":28.765978},{"index":211404,"name":"\u041f\u043e\u043b\u043e\u0446\u043a -4","director":"\u0417\u0430\u043b\u0435\u043d\u0441\u043a\u0430\u044f \u041c\u0430\u0440\u0438\u043d\u0430 \u0410\u043b\u0435\u043a\u0441\u0430\u043d\u0434\u0440\u043e\u0432\u043d\u0430","adres":"\u0443\u043b. \u0428\u043a\u043e\u043b\u044c\u043d\u0430\u044f, 9","ID_city":34,"code":"+375214","tel1":"48-10-10","tel2":" ","tel3":" ","latitude":55.512577,"longitude":28.7679},{"index":211405,"name":"\u041f\u043e\u043b\u043e\u0446\u043a -5","director":"\u0412\u0438\u043d\u043e\u0433\u0440\u0430\u0434\u043e\u0432\u0430 \u041e\u043b\u044c\u0433\u0430 \u0412\u0438\u043a\u0442\u043e\u0440\u043e\u0432\u043d\u0430","adres":"\u0443\u043b. \u0422\u0440\u043e\u0441\u043d\u0438\u0446\u043a\u0430\u044f, 39","ID_city":34,"code":"+375214","tel1":"44-23-45","tel2":" ","tel3":" ","latitude":55.48476,"longitude":28.775787},{"index":211406,"name":"\u041f\u043e\u043b\u043e\u0446\u043a -6","director":"\u0424\u0435\u0434\u043e\u0440\u043e\u0432\u0430 \u0422\u0430\u0442\u044c\u044f\u043d\u0430 \u0412\u0438\u043a\u0442\u043e\u0440\u043e\u0432\u043d\u0430","adres":"\u0443\u043b. \u041c\u0430\u044f\u043a\u043e\u0432\u0441\u043a\u043e\u0433\u043e, 14","ID_city":34,"code":"+375214","tel1":"42-26-42","tel2":" ","tel3":" ","latitude":55.496078,"longitude":28.790583},{"index":211407,"name":"\u041f\u043e\u043b\u043e\u0446\u043a -7","director":"\u041c\u0430\u0446\u0443\u043b\u0435\u0432\u0438\u0447 \u0422\u0430\u0442\u044c\u044f\u043d\u0430 \u0410\u043d\u0430\u0442\u043e\u043b\u044c\u0435\u0432\u043d\u0430","adres":"\u0443\u043b. \u0415. \u041f\u043e\u043b\u043e\u0446\u043a\u043e\u0439, 79","ID_city":34,"code":"+375214","tel1":"42-26-38","tel2":" ","tel3":" ","latitude":55.48476,"longitude":28.775787},{"index":211411,"name":"\u041f\u043e\u043b\u043e\u0446\u043a -11","director":"\u041b\u0430\u0432\u0440\u0438\u043d\u043e\u0432\u0438\u0447 \u0421\u0432\u0435\u0442\u043b\u0430\u043d\u0430 \u0412\u0438\u043a\u0442\u043e\u0440\u043e\u0432\u043d\u0430","adres":"\u0443\u043b. \u041e\u043a\u0442\u044f\u0431\u0440\u044c\u0441\u043a\u0430\u044f, 48","ID_city":34,"code":"+375214","tel1":"42-24-62","tel2":" ","tel3":" ","latitude":55.490289,"longitude":28.783109},{"index":211415,"name":"\u041f\u043e\u043b\u043e\u0446\u043a -15","director":"\u041d\u043e\u0432\u0438\u043a\u043e\u0432\u0430 \u041b\u044e\u0434\u043c\u0438\u043b\u0430 \u0410\u043d\u0430\u0442\u043e\u043b\u044c\u0435\u0432\u043d\u0430","adres":"\u043f\u0440-\u0442 \u0424.\u0421\u043a\u043e\u0440\u0438\u043d\u044b, 32","ID_city":34,"code":"+375214","tel1":"42-33-35","tel2":" ","tel3":" ","latitude":55.48476,"longitude":28.775787},{"index":211422,"name":"\u041f\u043e\u043b\u043e\u0446\u043a -17","director":"\u041c\u0438\u043d\u043e\u0432\u0430 \u0422\u0430\u0442\u044c\u044f\u043d\u0430 \u041f\u0435\u0442\u0440\u043e\u0432\u043d\u0430","adres":"\u0443\u043b. \u0412\u043e\u043b\u043e\u0433\u0438\u043d\u0430, 101","ID_city":34,"code":"+375214","tel1":"48-15-01","tel2":" ","tel3":" ","latitude":55.48476,"longitude":28.775787},{"index":211441,"name":"\u041e\u041f\u0421-1","director":"\u0411\u043e\u0440\u0446\u043e\u0432\u0430 \u0410.\u0412.","adres":"\u041f\u0440\u043e\u043c\u0437\u043e\u043d\u0430 \u041e\u0410\u041e \"\u041d\u0430\u0444\u0442\u0430\u043d\"","ID_city":32,"code":"+375214","tel1":"59-82-42","tel2":" ","tel3":"59-82-42","latitude":55.535992,"longitude":28.645056},{"index":211443,"name":"\u041e\u041f\u0421-3","director":"\u041c\u0430\u0439\u043e\u0440\u043e\u0432\u0430 \u0415.\u0413.","adres":"\u041c\u041e\u041b\u041e\u0414\u0415\u0416\u041d\u0410\u042f, 20","ID_city":32,"code":"+375214","tel1":"37-15-46","tel2":" ","tel3":" ","latitude":55.539961,"longitude":28.629039},{"index":211444,"name":"\u041e\u041f\u0421-4","director":"\u041b\u0430\u0449 \u041b.\u041c.","adres":"\u042f\u043a\u0443\u0431\u0430 \u041a\u043e\u043b\u0430\u0441\u0430 , 32","ID_city":32,"code":"+375214","tel1":"39-00-55","tel2":" ","tel3":" ","latitude":55.527316,"longitude":28.677296},{"index":211445,"name":"\u041e\u041f\u0421-5","director":"\u041a\u0430\u043b\u0443\u0433\u0438\u043d\u0430 \u0418.\u0421.","adres":"\u041f\u0440\u043e\u043c\u0437\u043e\u043d\u0430 \"\u041f\u041e\u041b\u0418\u041c\u0418\u0420\"","ID_city":32,"code":"+375214","tel1":"55-72-05","tel2":" ","tel3":" ","latitude":55.535992,"longitude":28.645056},{"index":211446,"name":"\u041e\u041f\u0421-6","director":"\u041a\u0443\u0440\u043d\u0435\u0432\u0438\u0447 \u041b.\u041f.","adres":"\u041c\u041e\u041b\u041e\u0414\u0415\u0416\u041d\u0410\u042f 74","ID_city":32,"code":"+375214","tel1":"536006","tel2":"536006 ","tel3":"538822","latitude":55.534943,"longitude":28.644535},{"index":211447,"name":"\u041e\u041f\u0421-7","director":"\u041a\u0443\u0440\u0435\u043f\u0438\u043d\u0430 \u0422.\u042e.","adres":"\u041a\u0410\u041b\u0418\u041d\u0418\u041d\u0410,5","ID_city":32,"code":"+375214","tel1":"538655","tel2":" ","tel3":"532509","latitude":55.53102,"longitude":28.658854},{"index":211448,"name":"\u041e\u041f\u0421-8","director":"\u0411\u0430\u0442\u043c\u0430\u043d\u043e\u0432\u0430 \u0421.\u0418.","adres":"\u041c\u041e\u041b\u041e\u0414\u0415\u0416\u041d\u0410\u042f,133","ID_city":32,"code":"+375214","tel1":"32-14-18","tel2":" ","tel3":"32-14-18","latitude":55.528411,"longitude":28.669193},{"index":211449,"name":"\u041e\u041f\u0421-9","director":"\u0416\u0443\u0440\u0430\u0432\u043b\u0435\u0432\u0430 \u0422.\u0412.","adres":"\u041a\u041e\u041c\u0421\u041e\u041c\u041e\u041b\u042c\u0421\u041a\u0410\u042f,15","ID_city":32,"code":"+375214","tel1":"32-57-77","tel2":" ","tel3":"32-57-77","latitude":55.523932,"longitude":28.661315},{"index":211480,"name":"\u0423\u0448\u0430\u0447\u0441\u043a\u0438\u0439 \u0420\u0423\u041f\u0421","director":"\u0421\u0432\u0438\u0434\u0438\u043d\u0441\u043a\u0430\u044f \u0413.\u0418.","adres":"\u0421\u043e\u0432\u0435\u0442\u0441\u043a\u0430\u044f,39","ID_city":39,"code":"+3752158","tel1":"2-13-50","tel2":"2-85-14 ","tel3":"2-12-73","latitude":55.176594,"longitude":28.614576},{"index":211501,"name":"\u041e\u041f\u0421-11","director":"\u041e\u0433\u043e\u0440\u043e\u0434\u043d\u0438\u043a\u043e\u0432\u0430 \u0418.\u0412.","adres":"\u041c\u041e\u041b\u041e\u0414\u0415\u0416\u041d\u0410\u042f,169","ID_city":32,"code":"+375214","tel1":"55-12-21","tel2":" ","tel3":"55-12-21","latitude":55.518285,"longitude":28.68777},{"index":211540,"name":"\u043d\u0435 \u043e\u0431\u0441\u043b\u0443\u0436\u0438\u0432\u0430\u0435\u0442 (\u0441\u043b\u0443\u0436\u0435\u0431\u043d\u044b\u0439 \u0438\u043d\u0434\u0435\u043a\u0441)","director":" ","adres":" ","ID_city":26,"code":"+3752139","tel1":" ","tel2":" ","tel3":" ","latitude":55.463069,"longitude":29.984255},{"index":211587,"name":"\u0414\u0443\u0431\u0440\u043e\u0432\u043d\u043e 1","director":"\u041c\u0438\u043d\u0438\u043d\u0430 \u041d\u0438\u043d\u0430 \u041d\u0438\u043a\u043e\u043b\u0430\u0435\u0432\u043d\u0430","adres":"\u0443\u043b. \u041a\u043e\u043c\u0441\u043e\u043c\u043e\u043b\u044c\u0441\u043a\u0430\u044f, 15","ID_city":28,"code":"+3752137","tel1":"41340","tel2":"41340 ","tel3":"41340","latitude":54.571924,"longitude":30.691202},{"index":211775,"name":"\u0413\u043b\u0443\u0431\u043e\u043a\u043e\u0435 \u041f\u041e\u041f\u0421-5","director":"\u041f\u043e\u043b\u044f\u043a \u0421\u0432\u0435\u0442\u043b\u0430\u043d\u0430 \u0412\u043b\u0430\u0434\u0438\u043c\u0438\u0440\u043e\u0432\u043d\u0430","adres":"\u0443\u043b. \u041b\u0435\u043d\u0438\u043d\u0430, \u0434. 8","ID_city":25,"code":"+3752156","tel1":" ","tel2":" ","tel3":"2-12-25","latitude":55.135685,"longitude":27.651501},{"index":211800,"name":"\u0413\u043b\u0443\u0431\u043e\u043a\u043e\u0435 \u0420\u0423\u041f\u0421","director":"\u041a\u043e\u0432\u0430\u043b\u0435\u043d\u043e\u043a \u0417\u043e\u044f \u041c\u0430\u0442\u0432\u0435\u0435\u0432\u043d\u0430","adres":"\u0443\u043b.\u041b\u0435\u043d\u0438\u043d\u0430 8","ID_city":25,"code":"+3752156","tel1":"2-12-25","tel2":" ","tel3":"2-12-25","latitude":55.135685,"longitude":27.651501},{"index":211828,"name":"\u0413\u043b\u0443\u0431\u043e\u043a\u043e\u0435 \u041f\u041e\u041f\u0421-4","director":"\u0411\u043e\u0434\u044f\u0435\u0432\u0430 \u041d\u0430\u0442\u0430\u043b\u044c\u044f \u0421\u0435\u043c\u0435\u043d\u043e\u0432\u043d\u0430","adres":"\u0443\u043b. \u041b\u0435\u043d\u0438\u043d\u0430, \u0434. 8","ID_city":25,"code":"+3752156","tel1":" ","tel2":" ","tel3":"2-12-25","latitude":55.135685,"longitude":27.651501},{"index":211840,"name":"\u041f\u043e\u0441\u0442\u0430\u0432\u044b \u0420\u0423\u041f\u0421","director":"\u0421\u043a\u0443\u0440\u0430\u0442\u0435\u043d\u043e\u043a \u041b\u044e\u0434\u043c\u0438\u043b\u0430 \u0421\u0442\u0430\u043d\u0438\u0441\u043b\u0430\u0432\u043e\u0432\u043d\u0430","adres":"\u043f\u043b. \u041b\u0435\u043d\u0438\u043d\u0430, 16","ID_city":35,"code":"+3752155","tel1":"42373","tel2":" ","tel3":" ","latitude":55.113931,"longitude":26.838409},{"index":211873,"name":"\u041e\u041f\u0421 \u041f\u043e\u0441\u0442\u0430\u0432\u044b-2","director":"\u041b\u0443\u043a\u0448\u0430 \u0418\u0440\u0438\u043d\u0430 \u0415\u0432\u0433\u0435\u043d\u044c\u0435\u0432\u043d\u0430","adres":"\u0443\u043b.\u0421\u0442\u0430\u043d\u043a\u0435\u0432\u0438\u0447\u0430,4","ID_city":35,"code":"+3752155","tel1":"47755","tel2":" ","tel3":" ","latitude":55.116608,"longitude":26.882318},{"index":212000,"name":"\u041c\u043e\u0433\u0438\u043b\u0435\u0432-\u0446\u0435\u043d\u0442\u0440","director":"\u041d\u0430\u0443\u043c\u043e\u0432\u0430 ","adres":"\u043f\u043b. \u041f\u0440\u0438\u0432\u043e\u043a\u0437\u0430\u043b\u044c\u043d\u0430\u044f, 2","ID_city":5,"code":"+37522(2)","tel1":" ","tel2":" ","tel3":" ","latitude":53.926345,"longitude":30.338479},{"index":212001,"name":"1-\u0435 \u043e\u0442\u0434\u0435\u043b\u0435\u043d\u0438\u0435","director":"\u0413\u0440\u0430\u0431\u043e\u0432\u0441\u043a\u0430\u044f \u041d. \u0418.","adres":"\u0443\u043b. \u041f\u0435\u0440\u0432\u043e\u043c\u0430\u0439\u0441\u043a\u0430\u044f,82","ID_city":5,"code":"+37522(2)","tel1":"25-74-68","tel2":" ","tel3":" ","latitude":53.927199,"longitude":30.339072},{"index":212002,"name":"2-\u0435 \u043e\u0442\u0434\u0435\u043b\u0435\u043d\u0438\u0435","director":"\u0421\u0438\u043d\u0438\u0446\u044b\u043d\u0430 \u0422\u0430\u0442\u044c\u044f\u043d\u0430 \u042f\u043a\u043e\u0432\u043b\u0435\u0432\u043d\u0430","adres":"\u043f\u0440-\u0442 \u041f\u0443\u0448\u043a\u0438\u043d\u0430,22","ID_city":5,"code":"+37522(2)","tel1":"48-80-37","tel2":" ","tel3":" ","latitude":53.894617,"longitude":30.331014},{"index":212003,"name":"3-\u0435 \u043e\u0442\u0434\u0435\u043b\u0435\u043d\u0438\u0435","director":"\u0422\u0440\u043e\u0444\u0438\u043c\u043e\u0432\u0430 \u041d\u0430\u0442\u0430\u043b\u044c\u044f \u041c\u0438\u0445\u0430\u0439\u043b\u043e\u0432\u043d\u0430","adres":"\u0443\u043b. \u0427\u0435\u043b\u044e\u0441\u043a\u0438\u043d\u0446\u0435\u0432,66","ID_city":5,"code":"+37522(2)","tel1":"22-12-56","tel2":" ","tel3":" ","latitude":53.893445,"longitude":30.300175},{"index":212004,"name":"4-\u0435 \u043e\u0442\u0434\u0435\u043b\u0435\u043d\u0438\u0435","director":"\u041c\u0430\u0440\u0448\u0438\u043d\u0430 \u0412\u0430\u043b\u0435\u043d\u0442\u0438\u043d\u0430 \u0418\u0432\u0430\u043d\u043e\u0432\u043d\u0430","adres":"\u0443\u043b. \u0410\u0432\u0442\u043e\u0437\u0430\u0432\u043e\u0434\u0441\u043a\u0430\u044f,20","ID_city":5,"code":"+37522(2)","tel1":"47-34-21","tel2":" ","tel3":" ","latitude":53.886753,"longitude":30.410515},{"index":212008,"name":"8-\u0435 \u043e\u0442\u0434\u0435\u043b\u0435\u043d\u0438\u0435","director":"\u041a\u043e\u0437\u043b\u043e\u0432\u0430 \u0418\u0440\u0438\u043d\u0430 \u0412\u043b\u0430\u0434\u0438\u043c\u0438\u0440\u043e\u0432\u043d\u0430","adres":"\u0443\u043b. \u041a\u0430\u0448\u0442\u0430\u043d\u043e\u0432\u0430\u044f,2","ID_city":5,"code":"+37522(2)","tel1":"24-75-85","tel2":" ","tel3":" ","latitude":53.949783,"longitude":30.360748},{"index":212010,"name":"10-\u0435 \u043e\u0442\u0434\u0435\u043b\u0435\u043d\u0438\u0435","director":"\u0411\u0430\u0440\u043b\u044e\u0433\u043e\u0432\u0430 \u0410\u043d\u0430\u0441\u0442\u0430\u0441\u0438\u044f \u041f\u0435\u0442\u0440\u043e\u0432\u043d\u0430","adres":"\u0443\u043b. \u041d\u0438\u0436\u043d\u044f\u044f \u041a\u0430\u0440\u0430\u0431\u0430\u043d\u043e\u0432\u0441\u043a\u0430\u044f,85","ID_city":5,"code":"+37522(2)","tel1":"27-92-94","tel2":" ","tel3":" ","latitude":53.928853,"longitude":30.314161},{"index":212011,"name":"11-\u0435 \u043e\u0442\u0434\u0435\u043b\u0435\u043d\u0438\u0435","director":"\u0410\u043d\u0442\u043e\u043d\u0447\u0438\u043a \u0413\u0430\u043b\u0438\u043d\u0430 \u0412\u0430\u0441\u0438\u043b\u044c\u0435\u0432\u043d\u0430","adres":"\u0443\u043b. 30 \u043b\u0435\u0442 \u041f\u043e\u0431\u0435\u0434\u044b,30","ID_city":5,"code":"+37522(2)","tel1":"24-97-72","tel2":" ","tel3":" ","latitude":53.935294,"longitude":30.363066},{"index":212013,"name":"13-\u0435 \u043e\u0442\u0434\u0435\u043b\u0435\u043d\u0438\u0435","director":"\u041a\u043e\u0436\u0435\u0432\u043d\u0438\u043a\u043e\u0432\u0430 \u0412\u0435\u0440\u0430 \u041f\u0430\u0432\u043b\u043e\u0432\u043d\u0430","adres":"\u043f\u0435\u0440. \u0421\u043b\u0430\u0432\u0433\u043e\u0440\u043e\u0434\u0441\u043a\u0438\u0439,2","ID_city":5,"code":"+37522(2)","tel1":"42-74-28","tel2":" ","tel3":" ","latitude":53.861033,"longitude":30.361089},{"index":212015,"name":"15-\u0435 \u043e\u0442\u0434\u0435\u043b\u0435\u043d\u0438\u0435","director":"\u041b\u0430\u0444\u0438\u0446\u043a\u0430\u044f \u041c\u0430\u0440\u0438\u043d\u0430 \u0410\u043b\u0435\u043a\u0441\u0435\u0435\u0432\u043d\u0430","adres":"\u0443\u043b. \u0421\u0442\u0440\u043e\u0438\u0442\u0435\u043b\u0435\u0439,2","ID_city":5,"code":"+37522(2)","tel1":"25-73-69","tel2":" ","tel3":" ","latitude":53.90439,"longitude":30.2867},{"index":212016,"name":"16-\u0435 \u043e\u0442\u0434\u0435\u043b\u0435\u043d\u0438\u0435","director":"\u0411\u043e\u043d\u0434\u0430\u0440\u0435\u0432\u0430 \u0412\u0430\u043b\u0435\u043d\u0442\u0438\u043d\u0430 \u0412\u0430\u0441\u0438\u043b\u044c\u0435\u0432\u043d\u0430","adres":"\u0443\u043b. \u041f\u0435\u0440\u0432\u043e\u043c\u0430\u0439\u0441\u043a\u0430\u044f,158\u0430","ID_city":5,"code":"+37522(2)","tel1":"32-47-18","tel2":" ","tel3":" ","latitude":53.940435,"longitude":30.330987},{"index":212017,"name":"17-\u0435 \u043e\u0442\u0434\u0435\u043b\u0435\u043d\u0438\u0435","director":"\u041a\u0440\u0430\u0441\u0438\u043a\u043e\u0432\u0430 \u041d\u0430\u0442\u0430\u043b\u044c\u044f \u0410\u043d\u0430\u0442\u043e\u043b\u044c\u0435\u0432\u043d\u0430","adres":"\u0443\u043b. \u041d\u0430\u0440\u043e\u0434\u043d\u043e\u0433\u043e \u041e\u043f\u043e\u043b\u0447\u0435\u043d\u0438\u044f,18","ID_city":5,"code":"+37522(2)","tel1":"26-64-05","tel2":" ","tel3":" ","latitude":53.904522,"longitude":30.359499},{"index":212018,"name":"18-\u0435 \u043e\u0442\u0434\u0435\u043b\u0435\u043d\u0438\u0435","director":"\u0410\u0431\u0440\u0430\u043c\u043e\u0432\u0438\u0447 \u0413\u0430\u043b\u0438\u043d\u0430 \u041f\u0435\u0442\u0440\u043e\u0432\u043d\u0430","adres":"\u0443\u043b. \u042f\u0440\u043e\u0441\u043b\u0430\u0432\u0441\u043a\u0430\u044f,17\u0430","ID_city":5,"code":"+37522(2)","tel1":"42-16-96","tel2":" ","tel3":" ","latitude":53.873489,"longitude":30.396941},{"index":212020,"name":"20-\u0435 \u043e\u0442\u0434\u0435\u043b\u0435\u043d\u0438\u0435","director":"\u041a\u043e\u0431\u0435\u0440 \u041d\u0438\u043d\u0430 \u041c\u0438\u0445\u0430\u0439\u043b\u043e\u0432\u043d\u0430","adres":"\u0443\u043b. \u041f\u043e\u0434\u0433\u043e\u0440\u043d\u0430\u044f,87","ID_city":5,"code":"+37522(2)","tel1":"26-00-51","tel2":" ","tel3":" ","latitude":53.898384,"longitude":30.365392},{"index":212021,"name":"21-\u0435 \u043e\u0442\u0434\u0435\u043b\u0435\u043d\u0438\u0435","director":"\u0421\u0430\u0432\u0438\u0446\u043a\u0430\u044f \u041b\u044e\u0434\u043c\u0438\u043b\u0430 \u0415\u0432\u0433\u0435\u043d\u044c\u0435\u0432\u043d\u0430","adres":"\u0443\u043b. \u0410\u043b\u0442\u0430\u0439\u0441\u043a\u0430\u044f,36","ID_city":5,"code":"+37522(2)","tel1":"48-42-34","tel2":" ","tel3":" ","latitude":53.854268,"longitude":30.304936},{"index":212022,"name":"22-\u0435 \u043e\u0442\u0434\u0435\u043b\u0435\u043d\u0438\u0435","director":"\u0420\u0443\u0434\u044c\u043a\u043e\u0432\u0430 \u041c\u0430\u0440\u0438\u043d\u0430 \u0412\u043b\u0430\u0434\u0438\u043c\u0438\u0440\u043e\u0432\u043d\u0430","adres":"\u043f\u0440-\u0442 \u041c\u0438\u0440\u0430,9","ID_city":5,"code":"+37522(2)","tel1":"23-55-61","tel2":" ","tel3":" ","latitude":53.911996,"longitude":30.321213},{"index":212026,"name":"26-\u0435 \u043e\u0442\u0434\u0435\u043b\u0435\u043d\u0438\u0435","director":" ","adres":"\u0443\u043b. \u042f\u043a\u0443\u0431\u043e\u0432\u0441\u043a\u043e\u0433\u043e,37\u0430","ID_city":5,"code":"+37522(2)","tel1":"27-63-21","tel2":" ","tel3":" ","latitude":53.918795,"longitude":30.308376},{"index":212027,"name":"27-\u0435 \u043e\u0442\u0434\u0435\u043b\u0435\u043d\u0438\u0435","director":"\u0421\u043e\u0439\u043a\u0438\u043d\u0430 \u041e\u043b\u044c\u0433\u0430 \u0410\u043d\u0430\u0442\u043e\u043b\u044c\u0435\u0432\u043d\u0430","adres":"\u043f\u0440-\u0442 \u0428\u043c\u0438\u0434\u0442\u0430,5\u0430","ID_city":5,"code":"+37522(2)","tel1":"48-45-60","tel2":" ","tel3":" ","latitude":53.872274,"longitude":30.319686},{"index":212029,"name":"29-\u0435 \u043e\u0442\u0434\u0435\u043b\u0435\u043d\u0438\u0435","director":"\u0426\u0435\u043c\u0430 \u0418\u043d\u043d\u0430 \u0410\u043b\u0435\u043a\u0441\u0430\u043d\u0434\u0440\u043e\u0432\u043d\u0430","adres":"\u0443\u043b. \u0413\u0430\u0431\u0440\u043e\u0432\u0441\u043a\u0430\u044f,24","ID_city":5,"code":"+37522(2)","tel1":"41-66-31","tel2":" ","tel3":" ","latitude":53.866991,"longitude":30.344614},{"index":212030,"name":"30-\u0435 \u043e\u0442\u0434\u0435\u043b\u0435\u043d\u0438\u0435","director":"\u041c\u0430\u0440\u0442\u044b\u043d\u0435\u043d\u043a\u043e \u0418\u043d\u043d\u0430 \u0412\u0430\u0441\u0438\u043b\u044c\u0435\u0432\u043d\u0430","adres":"\u0443\u043b.\u041f\u0435\u0440\u0432\u043e\u043c\u0430\u0439\u0441\u043a\u0430\u044f 28","ID_city":5,"code":"+37522(2)","tel1":"22-06-27","tel2":"22-79-17 ","tel3":"31-09-30","latitude":53.903965,"longitude":30.336907},{"index":212031,"name":"\u0423\u0426\u041e\u041a","director":"\u0415\u0440\u043c\u043e\u043b\u0430\u0435\u0432\u0430 \u0413\u0430\u043b\u0438\u043d\u0430 \u0412\u043b\u0430\u0434\u0438\u043c\u0438\u0440\u043e\u0432\u043d\u0430","adres":"\u0443\u043b. \u041f\u0435\u0440\u0432\u043e\u043c\u0430\u0439\u0441\u043a\u0430\u044f, 28","ID_city":5,"code":"+37522(2)","tel1":"22-18-37","tel2":" ","tel3":" ","latitude":53.903965,"longitude":30.336907},{"index":212033,"name":"33-\u0435 \u043e\u0442\u0434\u0435\u043b\u0435\u043d\u0438\u0435","director":"\u041f\u043b\u043e\u0442\u043d\u0438\u043a\u043e\u0432\u0430 \u0421\u0432\u0435\u0442\u043b\u0430\u043d\u0430 \u041d\u0438\u043a\u043e\u043b\u0430\u0435\u0432\u043d\u0430","adres":"\u0443\u043b. \u041a\u043e\u0440\u043e\u043b\u0451\u0432\u0430,14","ID_city":5,"code":"+37522(2)","tel1":"26-06-88","tel2":" ","tel3":" ","latitude":53.903313,"longitude":30.36965},{"index":212035,"name":"35-\u0435 \u043e\u0442\u0434\u0435\u043b\u0435\u043d\u0438\u0435","director":"\u0412\u043b\u0430\u0441\u043e\u0432\u0430 \u041d\u0430\u0442\u0430\u043b\u044c\u044f \u0413\u0435\u043d\u043d\u0430\u0434\u044c\u0435\u0432\u043d\u0430","adres":"\u041c\u041f\u041e \"\u0425\u0438\u043c\u0432\u043e\u043b\u043e\u043a\u043d\u043e\"","ID_city":5,"code":"+37522(2)","tel1":"33-28-84","tel2":" ","tel3":" ","latitude":53.894617,"longitude":30.331014},{"index":212036,"name":"36-\u0435 \u043e\u0442\u0434\u0435\u043b\u0435\u043d\u0438\u0435","director":"\u041c\u0430\u043d\u0435\u043d\u043e\u043a \u0412\u0430\u043b\u0435\u043d\u0442\u0438\u043d\u0430 \u0413\u0435\u043e\u0440\u0433\u0438\u0435\u0432\u043d\u0430","adres":"\u0443\u043b. \u0421\u0438\u043c\u043e\u043d\u043e\u0432\u0430,45","ID_city":5,"code":"+37522(2)","tel1":"45-57-90","tel2":" ","tel3":" ","latitude":53.865515,"longitude":30.310577},{"index":212037,"name":"37-\u0435 \u043e\u0442\u0434\u0435\u043b\u0435\u043d\u0438\u0435","director":"\u041a\u0440\u0443\u0433\u043b\u0438\u043a \u0418\u0440\u0438\u043d\u0430 \u0412\u0430\u043b\u0435\u0440\u044c\u044f\u043d\u043e\u0432\u043d\u0430","adres":"\u0443\u043b. \u0428\u043a\u043e\u043b\u044c\u043d\u0430\u044f,2","ID_city":5,"code":"+37522(2)","tel1":"46-17-20","tel2":" ","tel3":" ","latitude":53.865584,"longitude":30.432164},{"index":212038,"name":"38-\u0435 \u043e\u0442\u0434\u0435\u043b\u0435\u043d\u0438\u0435","director":"\u041f\u0430\u0432\u043b\u0435\u043d\u043a\u043e \u0417\u043e\u044f \u041c\u0438\u0445\u0430\u0439\u043b\u043e\u0432\u043d\u0430","adres":"\u0443\u043b. \u041c\u043e\u0432\u0447\u0430\u043d\u0441\u043a\u043e\u0433\u043e,2","ID_city":5,"code":"+37522(2)","tel1":"42-34-76","tel2":" ","tel3":" ","latitude":53.872576,"longitude":30.367297},{"index":212039,"name":"39-\u0435 \u043e\u0442\u0434\u0435\u043b\u0435\u043d\u0438\u0435","director":"\u0424\u0438\u0442\u0438\u043d\u0441\u043a\u0430\u044f \u0422\u0430\u0442\u044c\u044f\u043d\u0430 \u0418\u0432\u0430\u043d\u043e\u0432\u043d\u0430","adres":"\u041c\u0438\u043d\u0441\u043a\u043e\u0435 \u0448\u043e\u0441\u0441\u0435,20","ID_city":5,"code":"+37522(2)","tel1":"32-15-80","tel2":" ","tel3":" ","latitude":53.930947,"longitude":30.260235},{"index":212040,"name":"40-\u0435 \u043e\u0442\u0434\u0435\u043b\u0435\u043d\u0438\u0435","director":"\u0418\u0432\u0430\u043d\u043e\u0432\u0430 \u0410\u043d\u0436\u0435\u043b\u0430 \u041c\u0438\u0445\u0430\u0439\u043b\u043e\u0432\u043d\u0430","adres":"\u043f\u0440-\u0442 \u0414\u0438\u043c\u0438\u0442\u0440\u043e\u0432\u0430,39","ID_city":5,"code":"+37522(2)","tel1":"42-24-88","tel2":" ","tel3":" ","latitude":53.872486,"longitude":30.374447},{"index":213010,"name":"\u0428\u043a\u043b\u043e\u0432 \u0420\u0423\u041f\u0421","director":" ","adres":"\u0421\u043e\u0432\u0435\u0442\u0441\u043a\u0430\u044f, 22","ID_city":121,"code":"+3752239","tel1":" ","tel2":" ","tel3":" ","latitude":54.206195,"longitude":30.29465},{"index":213160,"name":"\u0411\u0435\u043b\u044b\u043d\u0438\u0447\u0438 \u0420\u0423\u041f\u0421","director":" ","adres":"\u041b\u0435\u043d\u0438\u043d\u0441\u043a\u0430\u044f, 53","ID_city":102,"code":"+3752232","tel1":" ","tel2":" ","tel3":" ","latitude":53.994567,"longitude":29.71574},{"index":213180,"name":"\u041a\u0440\u0443\u0433\u043b\u043e\u0435 \u0420\u0423\u041f\u0421","director":" ","adres":"\u0421\u043e\u0432\u0435\u0442\u0441\u043a\u0430\u044f, 32","ID_city":114,"code":"+3752234","tel1":"(802234) 514","tel2":" ","tel3":" ","latitude":54.241462,"longitude":29.793453},{"index":213240,"name":"\u0421\u043b\u0430\u0432\u0433\u043e\u0440\u043e\u0434 \u0420\u0423\u041f\u0421","director":" ","adres":"\u041e\u043a\u0442\u044f\u0431\u0440\u044c\u0441\u043a\u0430\u044f, 6","ID_city":117,"code":"+3752246","tel1":" ","tel2":" ","tel3":" ","latitude":53.44558,"longitude":31.003591},{"index":213312,"name":"\u0413\u041e\u041f\u0421-3 ","director":"\u0421\u0442\u0443\u043a\u0430\u043d \u0418\u043d\u0435\u0441\u0441\u0430 \u041a\u043e\u043d\u0441\u0442\u0430\u043d\u0442\u0438\u043d\u043e\u0432\u043d\u0430 ","adres":" ","ID_city":104,"code":"+3752231","tel1":"5-82-50 ","tel2":" ","tel3":" ","latitude":53.51802,"longitude":30.240419},{"index":213320,"name":"\u0411\u044b\u0445\u043e\u0432 \u0420\u0423\u041f\u0421","director":" ","adres":"\u0421\u043e\u0432\u0435\u0442\u0441\u043a\u0430\u044f,5","ID_city":104,"code":"+3752231","tel1":" ","tel2":" ","tel3":" ","latitude":53.520424,"longitude":30.255915},{"index":213333,"name":"\u0418\u043c. \u0412\u043e\u0440\u043e\u0432\u0441\u043a\u043e\u0433\u043e","director":"\u0411\u043e\u0440\u0438\u0441\u043e\u0432\u0430 \u0413\u0430\u043b\u0438\u043d\u0430 \u042f\u043a\u043e\u0432\u043b\u0435\u0432\u043d\u0430","adres":" ","ID_city":104,"code":"+3752231","tel1":"38-400","tel2":" ","tel3":" ","latitude":53.51802,"longitude":30.240419},{"index":213352,"name":"\u0413\u041e\u041f\u0421-2 ","director":"\u041a\u043e\u0440\u0436\u043e\u0432\u0430 \u0415\u043b\u0435\u043d\u0430 \u041b\u0435\u043e\u043d\u0438\u0434\u043e\u0432\u043d\u0430 ","adres":"\u0443\u043b.\u0421\u043e\u0432\u0435\u0442\u0441\u043a\u0430\u044f 5 ","ID_city":104,"code":"+3752231","tel1":"5-21-90 ","tel2":"5-22-80 ","tel3":" ","latitude":53.520424,"longitude":30.255915},{"index":213353,"name":"\u0413\u041e\u041f\u0421-1 ","director":"\u041a\u0430\u0441\u044c\u044f\u043d \u041d\u0430\u0442\u0430\u043b\u044c\u044f \u0415\u0432\u0433\u0435\u043d\u044c\u0435\u0432\u043d\u0430 ","adres":"\u0443\u043b.\u0410\u0432\u0438\u0430\u0446\u0438\u043e\u043d\u043d\u0430\u044f 5 ","ID_city":104,"code":"+3752231","tel1":"5-22-55 ","tel2":" ","tel3":" ","latitude":53.523283,"longitude":30.21443},{"index":213404,"name":"\u0413\u041e\u041f\u0421-5 ","director":"\u0413\u043e\u0431\u0440\u0438\u043a\u043e\u0432\u0430 \u041d\u0438\u043d\u0430 \u0412\u043b\u0430\u0434\u0438\u043c\u0438\u0440\u043e\u0432\u043d\u0430 ","adres":"\u041c.\u0413\u043e\u0440\u044c\u043a\u043e\u0433\u043e, 3 ","ID_city":106,"code":"+3752233","tel1":"(02233)59111","tel2":" ","tel3":" ","latitude":53.882003,"longitude":30.273405},{"index":213407,"name":"\u0413\u041e\u041f\u0421-1 ","director":"\u0421\u0430\u0432\u0447\u0435\u043d\u043a\u043e \u0422\u0430\u043c\u0430\u0440\u0430 \u0412\u0430\u0441\u0438\u043b\u044c\u0435\u0432\u043d\u0430 ","adres":"\u0418\u043d\u0442\u0435\u0440\u043d\u0430\u0446\u0438\u043e\u043d\u0430\u043b\u044c\u043d\u044b\u0439, 22 ","ID_city":106,"code":"+3752233","tel1":"(02233)56892","tel2":"(02233)57406 ","tel3":" ","latitude":54.300607,"longitude":30.985463},{"index":213408,"name":"\u0413\u041e\u041f\u0421-2 ","director":"\u0411\u0430\u043b\u044b\u0448\u043a\u0438\u043d\u0430 \u0413\u0430\u043b\u0438\u043d\u0430 \u0418\u0432\u0430\u043d\u043e\u0432\u043d\u0430 ","adres":"\u041c\u0438\u0440\u0430, 39 ","ID_city":106,"code":"+3752233","tel1":"(02233)52069","tel2":" ","tel3":" ","latitude":54.264812,"longitude":30.992048},{"index":213409,"name":"\u0413\u041e\u041f\u0421-3 ","director":"\u0427\u0435\u0440\u043d\u0435\u043d\u043a\u043e \u0421\u0432\u0435\u0442\u043b\u0430\u043d\u0430 \u0418\u0432\u0430\u043d\u043e\u0432\u043d\u0430 ","adres":"\u0421\u0443\u0440\u0433\u0430\u043d\u043e\u0432\u0430, 51 ","ID_city":106,"code":"+3752233","tel1":"(02233)57973","tel2":" ","tel3":" ","latitude":54.28203,"longitude":30.974172},{"index":213410,"name":"\u0413\u043e\u0440\u043a\u0438 \u0420\u0423\u041f\u0421","director":" ","adres":"\u041c. \u0413\u043e\u0440\u044c\u043a\u043e\u0433\u043e, 3","ID_city":106,"code":"+3752233","tel1":" ","tel2":" ","tel3":" ","latitude":53.882003,"longitude":30.273405},{"index":213453,"name":"\u0413\u041e\u041f\u0421-3 ","director":"\u041a\u0443\u0434\u0440\u044f\u0447\u0435\u0432\u0430 \u0410\u043d\u043d\u0430 \u0418\u043e\u0441\u0438\u0444\u043e\u0432\u043d\u0430 ","adres":"\u041f\u0440\u043e\u043b\u0435\u0442\u0430\u0440\u0441\u043a\u0430\u044f, 61 ","ID_city":115,"code":"+3752240","tel1":"(02240)21562","tel2":"(02240)21562 ","tel3":" ","latitude":54.022203,"longitude":31.732898},{"index":213470,"name":"\u041c\u0441\u0442\u0438\u0441\u043b\u0430\u0432\u043b\u044c \u0420\u0423\u041f\u0421","director":" ","adres":"\u041f\u0440\u043e\u043b\u0435\u0442\u0430\u0440\u0441\u043a\u0430\u044f, 61","ID_city":115,"code":"+3752240","tel1":" ","tel2":" ","tel3":" ","latitude":54.022203,"longitude":31.732898},{"index":213495,"name":"\u0413\u041e\u041f\u0421-5 ","director":"\u041a\u043e\u0442\u043b\u044f\u0440\u043e\u0432\u0430 \u0412\u0435\u0440\u0430 \u0412\u043b\u0430\u0434\u0438\u043c\u0438\u0440\u043e\u0432\u043d\u0430 ","adres":"\u043f\u0440. \u041a\u043e\u043c\u0441\u043e\u043c\u043e\u043b\u044c\u0441\u043a\u0438\u0439, 3 ","ID_city":113,"code":"+3752241","tel1":"(02241)54053","tel2":" ","tel3":" ","latitude":53.695644,"longitude":31.716629},{"index":213498,"name":"\u0413\u041e\u041f\u0421-8 ","director":"\u041c\u0443\u0434\u0440\u0435\u0447\u0435\u043d\u043a\u043e \u0422\u0430\u043c\u0430\u0440\u0430 \u0421\u0435\u043c\u0435\u043d\u043e\u0432\u043d\u0430 ","adres":"\u0443\u043b. \u0421\u043e\u0432\u0435\u0442\u0441\u043a\u0430\u044f, 44 ","ID_city":113,"code":"+3752241","tel1":"(02241)52808","tel2":"(02241)51505 ","tel3":" ","latitude":53.695511,"longitude":31.715353},{"index":213500,"name":"\u041a\u0440\u0438\u0447\u0435\u0432 \u0420\u0423\u041f\u0421","director":" ","adres":"\u0421\u043e\u0432\u0435\u0442\u0441\u043a\u0430\u044f, 44","ID_city":113,"code":"+3752241","tel1":" ","tel2":" ","tel3":" ","latitude":53.695511,"longitude":31.715353},{"index":213530,"name":"\u0427\u0435\u0440\u0438\u043a\u043e\u0432 \u0420\u0423\u041f\u0421","director":" ","adres":"\u0411\u043e\u043b\u0434\u0438\u043d\u0430, 33","ID_city":120,"code":"+3752243","tel1":" ","tel2":" ","tel3":" ","latitude":53.56907,"longitude":31.379204},{"index":213560,"name":"\u041a\u0440\u0430\u0441\u043d\u043e\u043f\u043e\u043b\u044c\u0435 \u0420\u0423\u041f\u0421","director":" ","adres":"\u041b\u0435\u043d\u0438\u043d\u0441\u043a\u0430\u044f, 11","ID_city":112,"code":"+3752238","tel1":" ","tel2":" ","tel3":" ","latitude":53.339834,"longitude":31.400925},{"index":213561,"name":"\u0413\u041e\u041f\u0421-2 ","director":"\u041b\u0430\u043f\u0430\u0435\u0432\u0430 \u0422.\u0410. ","adres":"\u041b\u0435\u043d\u0438\u043d\u0441\u043a\u0430\u044f 11 ","ID_city":112,"code":"+3752238","tel1":"2-14-06 ","tel2":" ","tel3":"2-27-38 ","latitude":53.339834,"longitude":31.400925},{"index":213563,"name":"\u041f\u041e\u041f\u0421 ","director":"\u0423\u0432\u0430\u0440\u043e\u0432\u0430 \u0421.\u0410. ","adres":"\u041b\u0435\u043d\u0438\u043d\u0441\u043a\u0430\u044f 11 ","ID_city":112,"code":"+3752238","tel1":" ","tel2":" ","tel3":" ","latitude":53.339834,"longitude":31.400925},{"index":213600,"name":"\u041a\u043b\u0438\u043c\u043e\u0432\u0438\u0447\u0438 \u0420\u0423\u041f\u0421","director":" ","adres":"\u041a\u043e\u043c\u043c\u0443\u043d\u0438\u0441\u0442\u0438\u0447\u0435\u0441\u043a\u0430\u044f, 13","ID_city":109,"code":"+3752244","tel1":" ","tel2":" ","tel3":" ","latitude":53.606768,"longitude":31.962642},{"index":213633,"name":"\u0413\u041e\u041f\u0421-3 ","director":"\u0421\u0438\u0434\u043e\u0440\u043e\u0432\u0430 \u0420.\u041f. ","adres":"\u041a\u043e\u043c\u043c\u0443\u043d\u0438\u0441\u0442\u0438\u0447\u0435\u0441\u043a\u0430\u044f,13 ","ID_city":109,"code":"+3752244","tel1":"(02244)51245","tel2":"(02244)51245 ","tel3":" ","latitude":53.606768,"longitude":31.962642},{"index":213635,"name":"\u0413\u041e\u041f\u0421-1 ","director":"\u042f\u043a\u0443\u0448\u0435\u0432\u0430 \u0422.\u0412. ","adres":"\u0421\u0435\u0432\u0435\u0440\u043d\u0430\u044f,1 ","ID_city":109,"code":"+3752244","tel1":"(02244)56360","tel2":" ","tel3":" ","latitude":53.589808,"longitude":31.931668},{"index":213640,"name":"\u041a\u043e\u0441\u0442\u044e\u043a\u043e\u0432\u0438\u0447\u0438 \u0420\u0423\u041f\u0421","director":" ","adres":"\u041b\u0435\u043d\u0438\u043d\u0441\u043a\u0430\u044f, 95","ID_city":111,"code":"+3752245","tel1":" ","tel2":" ","tel3":" ","latitude":53.351741,"longitude":32.058357},{"index":213652,"name":"\u0413\u041e\u041f\u0421-2 ","director":" ","adres":" ","ID_city":111,"code":"+3752245","tel1":" ","tel2":" ","tel3":" ","latitude":53.351741,"longitude":32.058357},{"index":213654,"name":"\u0413\u041e\u041f\u0421-4 ","director":"\u0428\u0443\u0432\u0430\u043b\u043e\u0432\u0430\u041d.\u0415. ","adres":"\u041c\u043e\u043b\u043e\u0434\u0435\u0436\u043d\u044b\u0439 ","ID_city":111,"code":"+3752245","tel1":"(02245)51892","tel2":" ","tel3":" ","latitude":53.351741,"longitude":32.058357},{"index":213655,"name":"\u0413\u041e\u041f\u0421-1 ","director":"\u0415\u0432\u0449\u0438\u043a \u0415.\u041f. ","adres":"\u041a\u0443\u043b\u0435\u0448\u043e\u0432\u0430 41 ","ID_city":111,"code":"+3752245","tel1":"(02245)54286","tel2":" ","tel3":" ","latitude":53.372236,"longitude":32.059839},{"index":213660,"name":"\u0425\u043e\u0442\u0438\u043c\u0441\u043a \u0420\u0423\u041f\u0421","director":" ","adres":"\u041b\u0435\u043d\u0438\u043d\u0441\u043a\u0430\u044f, 18","ID_city":118,"code":"+3752247","tel1":" ","tel2":" ","tel3":" ","latitude":53.410282,"longitude":32.58662},{"index":213678,"name":"\u041f\u041e\u041f\u0421-2 ","director":" ","adres":" ","ID_city":118,"code":"+3752247","tel1":" ","tel2":" ","tel3":" ","latitude":53.411393,"longitude":32.573694},{"index":213760,"name":"\u041e\u0441\u0438\u043f\u043e\u0432\u0438\u0447\u0438 \u0420\u0423\u041f\u0421","director":" ","adres":"\u0418\u043d\u0442\u0435\u0440\u043d\u0430\u0446\u0438\u043e\u043d\u0430\u043b\u044c\u043d\u0430\u044f, 5","ID_city":116,"code":"+3752235","tel1":" ","tel2":" ","tel3":" ","latitude":53.303188,"longitude":28.634815},{"index":213761,"name":"\u0413\u041e\u041f\u0421-1 ","director":"\u0422\u0440\u0443\u0441\u0435\u0432\u0438\u0447 \u041b\u0430\u0440\u0438\u0441\u0430 \u041d\u0438\u043a\u043e\u043b\u0430\u0435\u0432\u043d\u0430 ","adres":"\u0421\u043e\u0446\u0438\u0430\u043b\u0438\u0441\u0442\u0438\u0447\u0435\u0441\u043a\u0430\u044f,24 ","ID_city":116,"code":"+3752235","tel1":"(02235)24543","tel2":" ","tel3":" ","latitude":53.293889,"longitude":28.635399},{"index":213763,"name":"\u0413\u041e\u041f\u0421-3 ","director":"\u041c\u0438\u0442\u044f\u043a\u0438\u043d\u0430 \u0421\u0432\u0432\u0435\u0442\u043b\u0430\u043d\u0430 \u041f\u0435\u0442\u0440\u043e\u0432\u043d\u0430 ","adres":"\u0421\u0443\u043c\u0447\u0435\u043d\u043a\u043e, 38 ","ID_city":116,"code":"+3752235","tel1":"(02235)23885","tel2":" ","tel3":" ","latitude":53.313648,"longitude":28.642037},{"index":213764,"name":"\u0413\u041e\u041f\u0421-4 ","director":"\u0413\u0440\u0430\u043d\u0430 \u041b\u0430\u0440\u0438\u0441\u0430 \u0410\u043b\u0435\u043a\u0441\u0430\u043d\u0434\u0440\u043e\u0432\u043d\u0430 ","adres":"\u0421\u0443\u043c\u0447\u0435\u043d\u043a\u043e, 57\u0430 ","ID_city":116,"code":"+3752235","tel1":"(02235)22507","tel2":" ","tel3":" ","latitude":53.313648,"longitude":28.642037},{"index":213800,"name":"\u0411\u043e\u0431\u0440\u0443\u0439\u0441\u043a \u0423\u041f\u0421","director":" ","adres":"\u041c\u0438\u043d\u0441\u043a\u0430\u044f, 21","ID_city":103,"code":"+375225","tel1":" ","tel2":" ","tel3":" ","latitude":53.148238,"longitude":29.229823},{"index":213801,"name":"\u0413\u041e\u041f\u0421-1 ","director":"\u041a\u0430\u0437\u0430\u043a \u0422 \u0412 ","adres":"\u0427\u043e\u043d\u0433\u0430\u0440\u0441\u043a\u0430\u044f 193 ","ID_city":103,"code":"+375225","tel1":"(0225)491501","tel2":" ","tel3":" ","latitude":53.13186,"longitude":29.229931},{"index":213802,"name":"\u0413\u041e\u041f\u0421-2 ","director":"\u0421\u043b\u0435\u0441\u0430\u0440\u0435\u043d\u043e\u043a \u0410 \u041c ","adres":"\u041a\u0443\u0439\u0431\u044b\u0448\u0435\u0432\u0430 57 ","ID_city":103,"code":"+375225","tel1":"(0225)491835","tel2":" ","tel3":" ","latitude":53.158552,"longitude":29.222582},{"index":213803,"name":"\u0413\u041e\u041f\u0421-3 ","director":"\u0410\u043b\u0435\u0448\u043a\u0435\u0432\u0438\u0447 \u0418 \u041f ","adres":"\u041a\u0438\u0440\u043e\u0432\u0430 139 ","ID_city":103,"code":"+375225","tel1":"(0225)483297","tel2":" ","tel3":" ","latitude":53.104687,"longitude":29.241034},{"index":213805,"name":"\u0413\u041e\u041f\u0421-5 ","director":"\u0412\u0430\u0441\u0438\u043b\u0435\u043d\u044f \u0415 \u0413 ","adres":"\u0411\u0430\u0445\u0430\u0440\u043e\u0432\u0430 225 ","ID_city":103,"code":"+375225","tel1":"(0225)485111","tel2":" ","tel3":" ","latitude":53.126419,"longitude":29.189749},{"index":213809,"name":"\u0413\u041e\u041f\u0421-9 ","director":"\u0420\u0443\u0434\u0438\u043d\u0441\u043a\u0430\u044f \u041b \u0415 ","adres":"\u0421\u043e\u0446\u0438\u0430\u043b\u0438\u0441\u0442\u0438\u0447\u0435\u0441\u043a\u0430\u044f 125 ","ID_city":103,"code":"+375225","tel1":"(0225)581159","tel2":" ","tel3":" ","latitude":53.143734,"longitude":29.228125},{"index":213810,"name":"\u0413\u041e\u041f\u0421-10 ","director":"\u0413\u0443\u0441\u0442\u0435\u043d\u043e\u043a \u041d \u0412 ","adres":"\u0423\u043b\u044c\u044f\u043d\u043e\u0432\u0441\u043a\u0430\u044f 49 ","ID_city":103,"code":"+375225","tel1":"(0225)431770","tel2":"(0225)439050 ","tel3":" ","latitude":53.170802,"longitude":29.189884},{"index":213811,"name":"\u0413\u041e\u041f\u0421-11 ","director":"\u0417\u044b\u043a\u043e\u0432\u0430 \u0412 \u041b ","adres":"\u041e\u0440\u0434\u0436\u043e\u043d\u0438\u043a\u0438\u0434\u0437\u0435 42\u0430 ","ID_city":103,"code":"+375225","tel1":"(0225)436871","tel2":" ","tel3":" ","latitude":53.159351,"longitude":29.193881},{"index":213813,"name":"\u0413\u041e\u041f\u0421-13 ","director":"\u0413\u0435\u0440\u0431\u0438\u0447 \u0418 \u0410 ","adres":"\u041a\u0440\u0435\u0441\u0442\u044c\u044f\u043d\u0441\u043a\u0430\u044f 25 ","ID_city":103,"code":"+375225","tel1":"(0225)482692","tel2":" ","tel3":" ","latitude":53.118232,"longitude":29.215234},{"index":213814,"name":"\u0413\u041e\u041f\u0421-14 ","director":"\u041f\u0438\u0440\u0443\u043c\u044f\u043d \u0420 \u0418 ","adres":"\u0413\u043b\u0438\u043d\u043a\u0438 44 ","ID_city":103,"code":"+375225","tel1":"(0225)556670","tel2":" ","tel3":" ","latitude":53.17784,"longitude":29.232482},{"index":213815,"name":"\u0413\u041e\u041f\u0421-15 ","director":"\u0410\u0432\u0440\u0430\u043c\u0447\u0438\u043a \u0410 \u041d ","adres":"\u0413\u043e\u0433\u043e\u043b\u044f 108 ","ID_city":103,"code":"+375225","tel1":"(0225)484908","tel2":" ","tel3":" ","latitude":53.146251,"longitude":29.210725},{"index":213817,"name":"\u0413\u041e\u041f\u0421-17 ","director":"\u0413\u0443\u0434\u0435\u0435\u0432\u0430 \u0421 \u041c ","adres":"\u041a\u043e\u0432\u0437\u043e\u043d\u0430 8 ","ID_city":103,"code":"+375225","tel1":"(0225)481514","tel2":" ","tel3":" ","latitude":53.145711,"longitude":29.225188},{"index":213818,"name":"\u0413\u041e\u041f\u0421-18 ","director":"\u041f\u0440\u0438\u0433\u0443\u043d \u041b \u0418 ","adres":"\u041c\u043e\u043b\u043e\u043a\u043e\u0432\u0438\u0447\u0430 31 ","ID_city":103,"code":"+375225","tel1":"(0225)475400","tel2":" ","tel3":" ","latitude":53.145711,"longitude":29.225188},{"index":213819,"name":"\u0413\u041e\u041f\u0421-19 ","director":"\u041b\u0438\u043b\u044f\u043a\u043e\u0432\u0430 \u041d \u0412 ","adres":"\u0418\u043d\u0442\u0435\u0440\u043d\u0430\u0446\u0438\u043e\u043d\u0430\u043b\u044c\u043d\u0430\u044f 76 ","ID_city":103,"code":"+375225","tel1":"(0225)524053","tel2":" ","tel3":" ","latitude":53.139083,"longitude":29.213752},{"index":213822,"name":"\u0413\u041e\u041f\u0421-22 ","director":"\u0411\u0430\u0441\u0430\u043b\u044b\u0433\u043e \u0415 \u041d ","adres":"50 \u043b\u0435\u0442 \u0412\u041b\u041a\u0421\u041c 8 ","ID_city":103,"code":"+375225","tel1":"(0225)430450","tel2":" ","tel3":" ","latitude":53.170602,"longitude":29.198993},{"index":213823,"name":"\u0413\u041e\u041f\u0421-23 ","director":"\u0411\u0430\u0442\u0443\u0440\u043e \u0415 \u0412 ","adres":"\u041e\u0440\u043b\u043e\u0432\u0441\u043a\u043e\u0433\u043e 27 ","ID_city":103,"code":"+375225","tel1":"(0225)485044","tel2":" ","tel3":" ","latitude":53.1332,"longitude":29.179014},{"index":213824,"name":"\u0413\u041e\u041f\u0421-24 ","director":"\u041a\u0440\u0438\u0432\u043e\u0448\u0435\u0439 \u0415 \u0410 ","adres":"\u041c\u0438\u043d\u0441\u043a\u043e\u0435 \u0448\u043e\u0441\u0441\u0435 5 ","ID_city":103,"code":"+375225","tel1":"(0225)433077","tel2":" ","tel3":" ","latitude":53.145711,"longitude":29.225188},{"index":213825,"name":"\u0413\u041e\u041f\u0421-25 ","director":"\u0411\u043e\u043a\u0430\u0447 \u041b \u0412 ","adres":"\u0413\u043e\u0440\u0435\u043b\u0438\u043a\u0430 58 ","ID_city":103,"code":"+375225","tel1":"(0225)462715","tel2":" ","tel3":" ","latitude":53.140158,"longitude":29.167857},{"index":213826,"name":"\u0413\u041e\u041f\u0421-26 ","director":"\u0428\u043f\u0438\u043b\u0435\u0432\u0441\u043a\u0430\u044f \u0420 \u0410 ","adres":"\u0427\u043e\u043d\u0433\u0430\u0440\u0441\u043a\u0430\u044f 67 ","ID_city":103,"code":"+375225","tel1":"(0225)527790","tel2":" ","tel3":" ","latitude":53.13186,"longitude":29.229931},{"index":213827,"name":"\u0413\u041e\u041f\u0421-27 ","director":"\u041c\u0438\u0440\u043e\u043d\u0447\u0438\u043a \u0422 \u0418 ","adres":"\u041c\u0438\u043d\u0441\u043a\u0430\u044f 21 ","ID_city":103,"code":"+375225","tel1":"(0225)550072","tel2":"(0225)553069 ","tel3":" ","latitude":53.148238,"longitude":29.229823},{"index":213828,"name":"\u0413\u041e\u041f\u0421-28 ","director":"\u0422\u0430\u0440\u0430\u0441\u043e\u0432\u0430 \u0422 \u0424 ","adres":"\u041c\u0438\u043d\u0441\u043a\u0430\u044f 73 ","ID_city":103,"code":"+375225","tel1":"(0225)478755","tel2":"(0225)477745 ","tel3":" ","latitude":53.152893,"longitude":29.21704},{"index":213829,"name":"\u0413\u041e\u041f\u0421-29 ","director":"\u041c\u0443\u0437\u044b\u0447\u0438\u043d\u0430 \u0410 \u041c ","adres":"\u041b\u044b\u043d\u044c\u043a\u043e\u0432\u0430 6 ","ID_city":103,"code":"+375225","tel1":"(0225)430610","tel2":" ","tel3":" ","latitude":53.165555,"longitude":29.204661},{"index":213830,"name":"\u0413\u041e\u041f\u0421-30 ","director":"\u041a\u0430\u0440\u043f\u043e\u0432\u0430 \u041b \u0418 ","adres":"\u042f \u041a\u043e\u043b\u0430\u0441\u0430 72 ","ID_city":103,"code":"+375225","tel1":"(0225)458550","tel2":" ","tel3":" ","latitude":53.156419,"longitude":29.19319},{"index":213860,"name":"\u0413\u043b\u0443\u0441\u043a \u0420\u0423\u041f\u0421","director":" ","adres":"\u0416\u0438\u0436\u043a\u0435\u0432\u0438\u0447\u0430, 9","ID_city":105,"code":"+3752230","tel1":" ","tel2":" ","tel3":" ","latitude":52.899313,"longitude":28.688714},{"index":213900,"name":"\u041a\u043b\u0438\u0447\u0435\u0432 \u0420\u0423\u041f\u0421","director":" ","adres":"\u041b\u0435\u043d\u0438\u043d\u0441\u043a\u0430\u044f, 72","ID_city":110,"code":"+3752236","tel1":" ","tel2":" ","tel3":" ","latitude":53.497424,"longitude":29.332824},{"index":213940,"name":"\u041a\u0438\u0440\u043e\u0432\u0441\u043a","director":" ","adres":"\u041f\u0443\u0448\u043a\u0438\u043d\u0430, 19","ID_city":108,"code":"+3752237","tel1":" ","tel2":" ","tel3":" ","latitude":53.272473,"longitude":29.470149},{"index":213970,"name":"\u0414\u0440\u0438\u0431\u0438\u043d \u0420\u0423\u041f\u0421","director":" ","adres":"\u0421\u043e\u0432\u0435\u0442\u0441\u043a\u0430\u044f,6","ID_city":107,"code":"+3752248","tel1":" ","tel2":" ","tel3":" ","latitude":54.119482,"longitude":31.101068},{"index":220001,"name":"\u041c\u0418\u041d\u0421\u041a-1","director":"\u041f\u043b\u044f\u0448\u043a\u0435\u0432\u0438\u0447 \u041e.\u0421.","adres":"\u0443\u043b.\u041c\u043e\u0441\u043a\u043e\u0432\u0441\u043a\u0430\u044f,16","ID_city":1,"code":"+37517","tel1":"222-76-15","tel2":"224-95-60 ","tel3":" ","latitude":53.888186,"longitude":27.537801},{"index":220002,"name":"\u041c\u0418\u041d\u0421\u041a-2","director":"\u0413\u0430\u0432\u0440\u0438\u043b\u044c\u0447\u0438\u043a \u0410.\u041c","adres":"\u0443\u043b.\u0421\u0442\u043e\u0440\u043e\u0436\u0435\u0432\u0441\u043a\u0430\u044f,8","ID_city":1,"code":"+37517","tel1":"289-50-98","tel2":" ","tel3":"293-14-08","latitude":53.912951,"longitude":27.555444},{"index":220003,"name":"\u041c\u0418\u041d\u0421\u041a-3","director":"\u0421\u043e\u043b\u043e\u0432\u0435\u0439 \u0410.\u0412.","adres":"\u0443\u043b. \u0411\u0440\u0438\u043a\u0435\u0442\u0430,2","ID_city":1,"code":"+37517","tel1":"508-81-40","tel2":" ","tel3":" ","latitude":53.908978,"longitude":27.415253},{"index":220004,"name":"\u041c\u0418\u041d\u0421\u041a-4","director":"\u0410\u0441\u0440\u044f\u043d \u042d.\u042d.","adres":"\u0443\u043b.\u0422\u0430\u043d\u043a\u0430,36,\u043a.2","ID_city":1,"code":"+37517","tel1":"209-44-36","tel2":"306-45-52 ","tel3":"226-90-68","latitude":53.909355,"longitude":27.530049},{"index":220005,"name":"\u041c\u0418\u041d\u0421\u041a-5","director":"\u041a\u0443\u0438\u0441 \u0415.\u0412.","adres":"\u043f\u0440.\u041d\u0435\u0437\u0430\u0432\u0438\u0441\u0438\u043c\u043e\u0441\u0442\u0438,46","ID_city":1,"code":"+37517","tel1":"284-33-98","tel2":"288-14-12 ","tel3":"284-78-20","latitude":53.912776,"longitude":27.58066},{"index":220006,"name":"\u041c\u0418\u041d\u0421\u041a-6","director":"\u0411\u0443\u043d\u0438\u043d\u0430 \u041e.\u0412.","adres":"\u0443\u043b.\u041c\u0430\u044f\u043a\u043e\u0432\u0441\u043a\u043e\u0433\u043e,8","ID_city":1,"code":"+37517","tel1":"223-06-41","tel2":" ","tel3":"223-61-00","latitude":53.883564,"longitude":27.56705},{"index":220007,"name":"\u041c\u0418\u041d\u0421\u041a-7","director":"\u041a\u0430\u043c\u044f\u043a\u043e\u0432\u0430 \u041d.\u0410.","adres":"\u0443\u043b.\u0416\u0443\u043a\u043e\u0432\u0441\u043a\u043e\u0433\u043e,6 \u043a\u043e\u0440.2","ID_city":1,"code":"+37517","tel1":"224-37-54","tel2":" ","tel3":"224-38-95","latitude":53.882391,"longitude":27.549722},{"index":220008,"name":"\u041c\u0418\u041d\u0421\u041a-8","director":"\u041c\u043e\u0440\u043e\u0437 \u0412.\u0410.","adres":"\u043f\u0440.\u041d\u0435\u0437\u0430\u0432\u0438\u0441\u0438\u043c\u043e\u0441\u0442\u0438,20","ID_city":1,"code":"+37517","tel1":"227-01-02","tel2":" ","tel3":" ","latitude":53.899833,"longitude":27.558391},{"index":220009,"name":"\u041c\u0418\u041d\u0421\u041a-9","director":"\u041a\u0440\u0438\u0432\u043e\u0448\u0435\u0439 \u041e.\u041c.","adres":"\u0443\u043b.\u0427\u0435\u0431\u043e\u0442\u0430\u0440\u0435\u0432\u0430,1\/6","ID_city":1,"code":"+37517","tel1":"230- 74 -70","tel2":" ","tel3":" ","latitude":53.889911,"longitude":27.611193},{"index":220010,"name":"\u041c\u0418\u041d\u0421\u041a-10","director":"\u0412\u0438\u0442\u0443\u043d\u043e\u0432\u0430 \u041e.\u0418.","adres":"\u0443\u043b.\u0421\u043e\u0432\u0435\u0442\u0441\u043a\u0430\u044f,11","ID_city":1,"code":"+37517","tel1":"222-64-70","tel2":" ","tel3":"222 -62 -79","latitude":53.895939,"longitude":27.546182},{"index":220011,"name":"\u041c\u0418\u041d\u0421\u041a-11","director":"\u0421\u043b\u0430\u0431\u043a\u043e \u0422.\u0418.","adres":"\u041f\u0440\u0438\u0432\u043e\u043a\u0437\u0430\u043b\u044c\u043d\u0430\u044f \u043f\u043b.,3","ID_city":1,"code":"+37517","tel1":"226-09-23","tel2":"226-46-20 ","tel3":" ","latitude":53.89068,"longitude":27.550701},{"index":220012,"name":"\u041c\u0418\u041d\u0421\u041a-12","director":"\u041a\u0440\u0443\u0433\u043b\u0438\u043a \u0422\u0430\u0442\u044c\u044f\u043d\u0430 \u0410\u043b\u0435\u043a\u0441\u0430\u043d\u0434\u0440\u043e\u0432\u043d\u0430","adres":"\u043f\u0440.\u041d\u0435\u0437\u0430\u0432\u0438\u0441\u0438\u043c\u043e\u0441\u0442\u0438,91","ID_city":1,"code":"+37517","tel1":"280-66-55","tel2":"280-38-91 ","tel3":"280-95-87","latitude":53.923774,"longitude":27.610026},{"index":220013,"name":"\u041c\u0418\u041d\u0421\u041a-13","director":"\u0427\u0435\u0441\u0442\u043d\u043e\u0432\u0430 \u041b.\u0410.","adres":"\u0443\u043b.\u042f.\u041a\u043e\u043b\u0430\u0441\u0430,31","ID_city":1,"code":"+37517","tel1":"290-75-25","tel2":"331-28-27 ","tel3":"292-11-25","latitude":53.924214,"longitude":27.591089},{"index":220014,"name":"\u041c\u0418\u041d\u0421\u041a-14","director":"\u0421\u0442\u0435\u0444\u0430\u043d\u043e\u0432\u0438\u0447 \u041e.\u0418.","adres":"\u0443\u043b.\u0421. \u041a\u043e\u0432\u0430\u043b\u0435\u0432\u0441\u043a\u043e\u0439, 61","ID_city":1,"code":"+37517","tel1":"226-25-84","tel2":" ","tel3":"222-96-54","latitude":53.906077,"longitude":27.554914},{"index":220015,"name":"\u041c\u0418\u041d\u0421\u041a-15","director":"\u0416\u0438\u0437\u043d\u0435\u0432\u0441\u043a\u0430\u044f \u041c.\u0410.","adres":"\u0443\u043b.\u042f.\u041c\u0430\u0432\u0440\u0430,33\u0430","ID_city":1,"code":"+37517","tel1":"251-05-82","tel2":"251-01-53 ","tel3":"251-10-12","latitude":53.896989,"longitude":27.491511},{"index":220016,"name":"\u041c\u0418\u041d\u0421\u041a-16","director":"\u041c\u0430\u0447\u0443\u043b\u044c\u0441\u043a\u0430\u044f \u0412.\u0414.","adres":"\u0443\u043b.\u041a.\u041c\u0430\u0440\u043a\u0441\u0430,38","ID_city":1,"code":"+37517","tel1":"222-39-98","tel2":"222-30-98 ","tel3":" ","latitude":53.90039,"longitude":27.564382},{"index":220017,"name":"\u041c\u0418\u041d\u0421\u041a-17","director":"\u0413\u043e\u0448\u043a\u043e \u041e\u043b\u044c\u0433\u0430 \u0412\u0438\u043a\u0442\u043e\u0440\u043e\u0432\u043d\u0430","adres":"\u0443\u043b.\u041a\u0443\u043d\u0446\u0435\u0432\u0449\u0438\u043d\u0430,4","ID_city":1,"code":"+37517","tel1":"205 76 14","tel2":" ","tel3":"257-94-97","latitude":53.909901,"longitude":27.4371},{"index":220018,"name":"\u041c\u0418\u041d\u0421\u041a-18","director":"\u0412\u043e\u043b\u043e\u0445\u043e\u0432\u0438\u0447 \u041e.\u0418.","adres":"\u0443\u043b.\u042f\u043a\u0443\u0431\u043e\u0432\u0441\u043a\u043e\u0433\u043e,32\u0430","ID_city":1,"code":"+37517","tel1":"258-91-87","tel2":" ","tel3":"258-92-58","latitude":53.897435,"longitude":27.452129},{"index":220019,"name":"\u041c\u0418\u041d\u0421\u041a-19","director":"\u041a\u0440\u044b\u043b\u043e\u0432\u0430 \u041e.\u0418.","adres":"\u0443\u043b.\u041b\u043e\u0431\u0430\u043d\u043a\u0430,109","ID_city":1,"code":"+37517","tel1":"201-65-36","tel2":"201-65-36 ","tel3":"313-96-96","latitude":53.882189,"longitude":27.43242},{"index":220020,"name":"\u041c\u0418\u041d\u0421\u041a-20","director":"\u041b\u0430\u0437\u0430\u0440\u0435\u0432\u0430 \u0415.\u0412.","adres":"\u0443\u043b.\u041b.\u0423\u043a\u0440\u0430\u0438\u043d\u043a\u0438,22","ID_city":1,"code":"+37517","tel1":"250-34-04","tel2":" ","tel3":"250-34-05","latitude":53.931154,"longitude":27.490658},{"index":220021,"name":"\u041c\u0418\u041d\u0421\u041a-21","director":"\u041a\u0430\u043b\u0438\u043d\u043e\u0432\u0441\u043a\u0430\u044f \u0418.\u042d.","adres":"\u043f\u0440.\u041f\u0430\u0440\u0442\u0438\u0437\u0430\u043d\u0441\u043a\u0438\u0439,107","ID_city":1,"code":"+37517","tel1":"242-78-30","tel2":" ","tel3":"242-65-47","latitude":53.86937,"longitude":27.6501},{"index":220022,"name":"\u041c\u0418\u041d\u0421\u041a-22","director":"\u0421\u0432\u0438\u0440\u043a\u043e \u041b.\u0410.","adres":"\u0443\u043b.\u0428\u0430\u0440\u0430\u043d\u0433\u043e\u0432\u0438\u0447\u0430,48","ID_city":1,"code":"+37517","tel1":"315-74-71","tel2":" ","tel3":" ","latitude":53.882943,"longitude":27.441834},{"index":220023,"name":"\u041c\u0418\u041d\u0421\u041a-23","director":"\u0420\u043e\u043c\u0430\u043d\u044c\u043a\u043e\u0432\u0430 \u0415\u0432\u0433\u0435\u043d\u0438\u044f \u041e\u043b\u0435\u0433\u043e\u0432\u043d\u0430","adres":"\u043f\u0440. \u041d\u0435\u0437\u0430\u0432\u0438\u0441\u0438\u043c\u043e\u0441\u0442\u0438,103","ID_city":1,"code":"+37517","tel1":"267-03-31","tel2":"267-03-31 ","tel3":" ","latitude":53.928116,"longitude":27.626573},{"index":220024,"name":"\u041c\u0418\u041d\u0421\u041a-24","director":"\u0421\u043b\u0438\u0432\u0435\u0446 \u0412.\u0412.","adres":"\u0443\u043b.\u0410\u0441\u0430\u043d\u0430\u043b\u0438\u0435\u0432\u0430,40,\u043a\u043e\u0440.1","ID_city":1,"code":"+37517","tel1":"275-58-11","tel2":" ","tel3":"275-10-35","latitude":53.851134,"longitude":27.545625},{"index":220025,"name":"\u041c\u0418\u041d\u0421\u041a-25","director":"\u0416\u0438\u043b\u044c\u0447\u0438\u043a \u041b.\u041c.","adres":"\u0443\u043b.\u0415\u0441\u0435\u043d\u0438\u043d\u0430,10","ID_city":1,"code":"+37517","tel1":"270-02-74","tel2":"271-86-31 ","tel3":"271-86-61","latitude":53.849572,"longitude":27.465154},{"index":220026,"name":"\u041c\u0418\u041d\u0421\u041a-26","director":"\u041f\u0440\u0443\u0441 \u0422.\u0421.","adres":"\u0443\u043b.\u0416\u0438\u043b\u0443\u043d\u043e\u0432\u0438\u0447\u0430,26","ID_city":1,"code":"+37517","tel1":"295-77-33","tel2":"295-23-53 ","tel3":"296-07-85","latitude":53.869656,"longitude":27.626941},{"index":220027,"name":"\u041c\u0418\u041d\u0421\u041a-27","director":"\u041a\u0440\u0443\u0433\u043b\u0438\u043a \u041d.\u0410.","adres":"\u0443\u043b. \u0421\u0435\u043c\u0430\u0448\u043a\u043e,33","ID_city":1,"code":"+37517","tel1":"297-68-15","tel2":" ","tel3":" ","latitude":53.856875,"longitude":27.492796},{"index":220028,"name":"\u041c\u0418\u041d\u0421\u041a-28","director":"\u0425\u0430\u043c\u0438\u0447 \u041e.\u0410.","adres":"\u0443\u043b.\u041c\u0430\u044f\u043a\u043e\u0432\u0441\u043a\u043e\u0433\u043e,164","ID_city":1,"code":"+37517","tel1":"223-47-11","tel2":"223-47-12 ","tel3":"223-47-12","latitude":53.863343,"longitude":27.570886},{"index":220029,"name":"\u041c\u0418\u041d\u0421\u041a-29","director":"\u0428\u0443\u043a\u0430\u043b\u043e \u0420.\u0412.","adres":"\u0443\u043b.\u041a\u043e\u043c\u043c\u0443\u043d\u0438\u0441\u0442\u0438\u0447\u0435\u0441\u043a\u0430\u044f,3","ID_city":1,"code":"+37517","tel1":"334-36-08","tel2":" ","tel3":"384-35-13","latitude":53.91163,"longitude":27.565191},{"index":220030,"name":"\u041c\u0418\u041d\u0421\u041a-30","director":"\u0413\u0443\u043b\u044f\u0435\u0432\u0430 \u0421.\u0418.","adres":"\u0443\u043b.\u041a\u0438\u0440\u043e\u0432\u0430,33","ID_city":1,"code":"+37517","tel1":"327-85-91","tel2":" ","tel3":"327-14-30","latitude":53.898867,"longitude":27.563286},{"index":220031,"name":"\u041c\u0418\u041d\u0421\u041a-31","director":"\u0417\u0430\u0435\u0446 \u041e\u043b\u0435\u0433 \u041d\u0438\u043a\u043e\u043b\u0430\u0435\u0432\u0438\u0447","adres":"\u0443\u043b. \u0421\u043b\u0430\u0432\u044f\u043d\u0441\u043a\u0430\u044f,4","ID_city":1,"code":"+37517","tel1":"285-99-23","tel2":" ","tel3":" ","latitude":53.936603,"longitude":27.71953},{"index":220032,"name":"\u041c\u0418\u041d\u0421\u041a-32","director":"\u0423\u0434\u0440\u044f \u041c.\u0410.","adres":"\u0443\u043b. \u0424\u0438\u043b\u0438\u043c\u043e\u043d\u043e\u0432\u0430,45","ID_city":1,"code":"+37517","tel1":"267 29 94","tel2":"267 29 98 ","tel3":" ","latitude":53.92274,"longitude":27.636804},{"index":220033,"name":"\u041c\u0418\u041d\u0421\u041a-33","director":"\u041a\u043e\u0437\u0438\u0447 \u0413.\u0418.","adres":"\u0443\u043b.\u0420\u044b\u0431\u0430\u043b\u043a\u043e,2","ID_city":1,"code":"+37517","tel1":"298-15-34","tel2":"298-36-54 ","tel3":"298-15-38","latitude":53.88488,"longitude":27.594602},{"index":220034,"name":"\u041c\u0418\u041d\u0421\u041a-34","director":"\u0410\u0432\u0441\u0435\u0435\u043d\u043a\u043e \u0422.\u041c.","adres":"\u0443\u043b. \u041a\u043e\u0437\u043b\u043e\u0432\u0430,6","ID_city":1,"code":"+37517","tel1":"294-34-27","tel2":" ","tel3":"294-33-12","latitude":53.908167,"longitude":27.581881},{"index":220035,"name":"\u041c\u0418\u041d\u0421\u041a-35","director":"\u041a\u0430\u043b\u0430\u0447 \u0410.\u0413.","adres":"\u0443\u043b.\u0422\u0430\u0440\u0445\u0430\u043d\u043e\u0432\u0430,11","ID_city":1,"code":"+37517","tel1":"203-30-20","tel2":" ","tel3":"203-65-03","latitude":53.918026,"longitude":27.529321},{"index":220036,"name":"\u041c\u0418\u041d\u0421\u041a-36","director":"\u0411\u0430\u0440\u0434\u044e\u0433\u043e\u0432\u0430 \u041d.\u0412.","adres":"\u0443\u043b.\u041a\u043e\u0440\u0436\u0430,11","ID_city":1,"code":"+37517","tel1":"208 68 43","tel2":"208 38 75 ","tel3":"207 37 61","latitude":53.894946,"longitude":27.520437},{"index":220037,"name":"\u041c\u0418\u041d\u0421\u041a-37","director":"\u0425\u043e\u0434\u0430\u0441 \u0410.\u0412.","adres":"\u0443\u043b.\u0423\u0440\u0430\u043b\u044c\u0441\u043a\u0430\u044f,16","ID_city":1,"code":"+37517","tel1":"299-96-27","tel2":"245-65-31 ","tel3":"245-13-66","latitude":53.902432,"longitude":27.617257},{"index":220038,"name":"\u041c\u0418\u041d\u0421\u041a-38","director":"\u0421\u0435\u043c\u0435\u043d\u043e\u0432\u0430 \u041e\u043b\u044c\u0433\u0430 \u0410\u043b\u0435\u043a\u0441\u0430\u043d\u0434\u0440\u043e\u0432\u043d\u0430","adres":"\u0443\u043b.\u0414\u043e\u043b\u0433\u043e\u0431\u0440\u043e\u0434\u0441\u043a\u0430\u044f,4","ID_city":1,"code":"+37517","tel1":"245-35-41","tel2":"245-30-31 ","tel3":" ","latitude":53.901053,"longitude":27.601546},{"index":220039,"name":"\u041c\u0418\u041d\u0421\u041a-39","director":"\u0418\u0432\u0430\u0448\u043a\u0435\u0432\u0438\u0447 \u041c\u0430\u0440\u0438\u043d\u0430 \u0418\u0432\u0430\u043d\u043e\u0432\u043d\u0430","adres":"\u0443\u043b.\u0411\u0440\u0438\u043b\u0435\u0432\u0441\u043a\u0430\u044f,14","ID_city":1,"code":"+37517","tel1":"222-78-18","tel2":"222-05-66 ","tel3":"224-42-03","latitude":53.876701,"longitude":27.531522},{"index":220040,"name":"\u041c\u0418\u041d\u0421\u041a-40","director":"\u0426\u0432\u0435\u043b\u0438\u043a \u0418.\u041d.","adres":"\u0443\u043b.\u0411\u0435\u0434\u044b,19","ID_city":1,"code":"+37517","tel1":"292-13-84","tel2":" ","tel3":"331-52-55","latitude":53.9325,"longitude":27.588942},{"index":220041,"name":"\u041c\u0418\u041d\u0421\u041a-41","director":"\u041b\u044f\u0448\u043a\u0435\u0432\u0438\u0447 \u0421.\u0412.","adres":"\u0443\u043b. \u0420\u0430\u0444\u0438\u0435\u0432\u0430, 44","ID_city":1,"code":"+37517","tel1":"256-45-01","tel2":" ","tel3":" ","latitude":53.865414,"longitude":27.453243},{"index":220042,"name":"\u041c\u0418\u041d\u0421\u041a-42","director":"\u0413\u0440\u0438\u0433\u043e\u0440\u044c\u0435\u0432\u0430 \u0422.\u041d.","adres":"\u043f\u0440. \u0433\u0430\u0437\u0435\u0442\u044b \"\u041f\u0440\u0430\u0432\u0434\u0430\",27","ID_city":1,"code":"+37517","tel1":"227 30 87","tel2":" ","tel3":" ","latitude":53.862786,"longitude":27.481513},{"index":220043,"name":"\u041c\u0418\u041d\u0421\u041a-43","director":"\u0424\u0435\u0434\u043e\u0442\u043e\u0432\u0430 \u041e.\u041c.","adres":"\u043f\u0440.\u041d\u0435\u0437\u0430\u0432\u0438\u0441\u0438\u043c\u043e\u0441\u0442\u0438,95 (\u0447\u0430\u0441\u043e\u0432\u043e\u0439 \u0437\u0430\u0432\u043e\u0434)","ID_city":1,"code":"+37517","tel1":"280-52-64","tel2":" ","tel3":" ","latitude":53.926149,"longitude":27.616386},{"index":220044,"name":"\u041c\u0418\u041d\u0421\u041a-44","director":"\u0421\u043e\u043b\u043e\u0434\u043a\u0430\u044f \u0412. \u041d.","adres":"\u0443\u043b. \u0411\u0430\u0440\u0430\u043c\u0437\u0438\u043d\u043e\u0439, 16","ID_city":1,"code":"+37517","tel1":"279-61-10","tel2":" ","tel3":" ","latitude":53.876908,"longitude":27.90249},{"index":220045,"name":"\u041c\u0418\u041d\u0421\u041a-45","director":"\u0412\u0430\u0448\u043a\u0435\u0432\u0438\u0447 \u0412\u0430\u043b\u0435\u043d\u0442\u0438\u043d\u0430 \u041c\u0438\u0445\u0430\u0439\u043b\u043e\u0432\u043d\u0430","adres":"\u0443\u043b. \u041e\u0440\u0434\u044b \u041d\u0430\u043f\u043e\u043b\u0435\u043e\u043d\u0430, 23","ID_city":1,"code":"+37517","tel1":"372-26-59","tel2":"372-26-84 ","tel3":"372-26-72","latitude":53.843634,"longitude":27.481486},{"index":220046,"name":"\u041c\u0418\u041d\u0421\u041a-46","director":"\u041f\u0443\u0441\u0435\u043d\u043a\u043e\u0432\u0430 \u0422\u0430\u043c\u0430\u0440\u0430 \u041c\u0438\u0445\u0430\u0439\u043b\u043e\u0432\u043d\u0430","adres":"\u0443\u043b.\u0421\u043e\u043b\u0442\u044b\u0441\u0430,189","ID_city":1,"code":"+37517","tel1":"295-35-95","tel2":" ","tel3":" ","latitude":53.898846,"longitude":27.649525},{"index":220047,"name":"\u041c\u0418\u041d\u0421\u041a-47","director":"\u0410\u043d\u0442\u043e\u043d\u043e\u0432\u0430 \u0418\u0440\u0438\u043d\u0430 \u041d\u0438\u043a\u043e\u043b\u0430\u0435\u0432\u043d\u0430","adres":"\u0443\u043b.\u041d\u0435\u0441\u0442\u0435\u0440\u043e\u0432\u0430,51","ID_city":1,"code":"+37517","tel1":"242-46-71","tel2":"243-86-21 ","tel3":"243-38-12","latitude":53.884822,"longitude":27.683804},{"index":220048,"name":"\u041c\u0418\u041d\u0421\u041a-48","director":"\u041c\u0430\u0442\u044e\u0448\u0435\u043d\u043e\u043a \u0422.\u041f.","adres":"\u0443\u043b.\u0420\u043e\u043c\u0430\u043d\u043e\u0432\u0441\u043a\u0430\u044f \u0421\u043b\u043e\u0431\u043e\u0434\u0430,24","ID_city":1,"code":"+37517","tel1":"203- 27- 42","tel2":" ","tel3":" ","latitude":53.904029,"longitude":27.544089},{"index":220049,"name":"\u041c\u0418\u041d\u0421\u041a-49","director":"\u0413\u0435\u0440\u0446\u043e\u0432\u0438\u0447 \u0422.\u041c.","adres":"\u0443\u043b.\u041a\u043d\u043e\u0440\u0438\u043d\u0430,16","ID_city":1,"code":"+37517","tel1":"280-49-96","tel2":" ","tel3":"280-26-14","latitude":53.935294,"longitude":27.613808},{"index":220050,"name":"\u0426\u041f\u041f\u0423 (\u043f\u043e\u0447\u0442\u0430\u043c\u0442)","director":"\u0413\u0443\u0437\u0435\u043d\u043a\u043e\u0432\u0430 \u0422.\u0410.","adres":"\u043f\u0440.\u041d\u0435\u0437\u0430\u0432\u0438\u0441\u0438\u043c\u043e\u0441\u0442\u0438,10","ID_city":1,"code":"+37517","tel1":"227 77 24","tel2":" ","tel3":" ","latitude":53.89458,"longitude":27.549416},{"index":220051,"name":"\u041c\u0418\u041d\u0421\u041a-51","director":"\u041d\u0438\u043a\u043e\u043b\u0430\u0435\u0432\u0438\u0447 \u041d.\u0418.","adres":"\u0443\u043b.\u0420\u0430\u0444\u0438\u0435\u0432\u0430,93 \u043a\u043e\u0440.4","ID_city":1,"code":"+37517","tel1":"376 09 56","tel2":"376 09 65 ","tel3":"376 09 57","latitude":53.858734,"longitude":27.438968},{"index":220052,"name":"\u041c\u0418\u041d\u0421\u041a-52","director":"\u041a\u0443\u0440\u043e\u0447\u043a\u0438\u043d\u0430 \u0418\u0440\u0438\u043d\u0430 \u0424\u0435\u0434\u043e\u0440\u043e\u0432\u043d\u0430","adres":"\u0443\u043b. \u0411\u0440\u044b\u043b\u044f \u042f\u043d\u043a\u0438, 30","ID_city":1,"code":"+37517","tel1":"372-78-81","tel2":" ","tel3":" ","latitude":53.880093,"longitude":27.486274},{"index":220053,"name":"\u041c\u0418\u041d\u0421\u041a-53","director":"\u041c\u0430\u043b\u044b\u0447\u0435\u0432\u0430 \u0410\u043b\u0435\u043a\u0441\u0430\u043d\u0434\u0440\u0430 \u0412\u0430\u0441\u0438\u043b\u044c\u0435\u0432\u043d\u0430","adres":"\u0442\u0440-\u0442,\u0421\u0442\u0430\u0440\u043e\u0432\u0438\u043b\u0435\u043d\u0441\u043a\u0438\u0439, 28\/1","ID_city":1,"code":"+37517","tel1":"288-09-32","tel2":"288-09-32 ","tel3":"288-97-82","latitude":53.927596,"longitude":27.545113},{"index":220055,"name":"\u041c\u0418\u041d\u0421\u041a-55","director":"\u0420\u0435\u0431\u043a\u043e \u0418\u0440\u0438\u043d\u0430 \u041c\u0438\u0445\u0430\u0439\u043b\u043e\u0432\u043d\u0430","adres":"\u0443\u043b. \u0416\u0438\u043d\u043e\u0432\u0438\u0447\u0430, 21","ID_city":1,"code":"+37517","tel1":"390 56 72","tel2":"390 59 80 ","tel3":"312 31 00","latitude":53.922894,"longitude":27.442643},{"index":220056,"name":"\u041c\u0418\u041d\u0421\u041a-56","director":"\u041a\u043b\u0435\u0449\u0438\u043a \u041c\u0430\u0440\u0438\u043d\u0430 \u0413\u0435\u043e\u0440\u0433\u0438\u0435\u0432\u043d\u0430","adres":"\u0443\u043b.\u0413\u0435\u0440\u043e\u0435\u0432 120 \u0434\u0438\u0432\u0438\u0437\u0438\u0438,9","ID_city":1,"code":"+37517","tel1":"286-80-10","tel2":" ","tel3":"286-80-30","latitude":53.948347,"longitude":27.708382},{"index":220057,"name":"\u041c\u0418\u041d\u0421\u041a-57","director":"\u041a\u0443\u043b\u0430\u043a\u043e\u0432\u0430 \u0412.\u0412.","adres":"\u0443\u043b.\u0424\u043e\u0433\u0435\u043b\u044f,3","ID_city":1,"code":"+37517","tel1":" 269 27 96","tel2":" ","tel3":" ","latitude":53.958637,"longitude":27.736212},{"index":220060,"name":"\u041c\u0418\u041d\u0421\u041a-60","director":"\u041a\u0443\u043f\u0440\u0438\u044f\u043d\u043e\u0432\u0430 \u0421\u0432\u0435\u0442\u043b\u0430\u043d\u0430 \u0421\u0435\u0440\u0433\u0435\u0435\u0432\u043d\u0430","adres":"\u0443\u043b.\u0412\u043e\u043a\u0437\u0430\u043b\u044c\u043d\u0430\u044f, 22","ID_city":1,"code":"+37517","tel1":"222-93-51","tel2":" ","tel3":" ","latitude":53.889232,"longitude":27.55106},{"index":220064,"name":"\u041c\u0418\u041d\u0421\u041a-64","director":"\u041a\u043e\u0432\u0430\u043b\u0435\u0432\u0441\u043a\u0430\u044f \u041d.\u0412.","adres":"\u0443\u043b.\u041b\u0430\u043d\u0434\u0435\u0440\u0430, 36\u0430","ID_city":1,"code":"+37517","tel1":"212-08-40","tel2":" ","tel3":" ","latitude":53.842125,"longitude":27.493496},{"index":220065,"name":"\u041c\u0418\u041d\u0421\u041a-65","director":"\u0411\u0435\u043b\u043e\u043a\u043e\u0431\u044b\u043b\u044c\u0441\u043a\u0430\u044f \u041a\u0440\u0438\u0441\u0442\u0438\u043d\u0430 \u0412\u043b\u0430\u0434\u0438\u043c\u0438\u0440\u043e\u0432\u043d\u0430","adres":"\u0443\u043b.\u0410\u044d\u0440\u043e\u0434\u0440\u043e\u043c\u043d\u0430\u044f,7","ID_city":1,"code":"+37517","tel1":"224-47-85","tel2":" ","tel3":"220-30-37","latitude":53.873234,"longitude":27.538134},{"index":220066,"name":"\u041c\u0418\u041d\u0421\u041a-66","director":"\u0420\u043e\u0441\u043e\u043b\u044c\u043a\u043e \u041d.\u041f.","adres":"\u0443\u043b.\u0422\u0430\u0448\u043a\u0435\u043d\u0442\u0441\u043a\u0430\u044f,16","ID_city":1,"code":"+37517","tel1":"340-62-95","tel2":"341-90-10 ","tel3":"340-65-50","latitude":53.84102,"longitude":27.631477},{"index":220068,"name":"\u041c\u0418\u041d\u0421\u041a-68","director":"\u0425\u043e\u043c\u0447\u0435\u043d\u043a\u043e \u041c\u0430\u0440\u0438\u0430\u043d\u043d\u0430 \u041c\u0438\u0445\u0430\u0439\u043b\u043e\u0432\u043d\u0430","adres":"\u0431-\u0440,\u0428\u0435\u0432\u0447\u0435\u043d\u043a\u043e,17","ID_city":1,"code":"+37517","tel1":"288-94-52","tel2":"288-96-43 ","tel3":"233- 64-80","latitude":53.928482,"longitude":27.554824},{"index":220070,"name":"\u041c\u0418\u041d\u0421\u041a-70","director":"\u0411\u043e\u0440\u043e\u0434\u043e\u0432\u0441\u043a\u0430\u044f \u041b.\u0421.","adres":"\u0443\u043b.\u0412\u0430\u043d\u0435\u0435\u0432\u0430,18","ID_city":1,"code":"+37517","tel1":"230-29-43","tel2":" ","tel3":"230-44-62","latitude":53.881934,"longitude":27.612128},{"index":220071,"name":"\u041c\u0418\u041d\u0421\u041a-71","director":"\u041c\u0435\u0434\u043d\u0438\u043a\u043e\u0432\u0430 \u0413\u0430\u043b\u0438\u043d\u0430 \u0420\u043e\u043d\u0430\u043b\u044c\u0434\u043e\u0432\u043d\u0430","adres":"\u0443\u043b.\u0421\u043c\u043e\u043b\u044f\u0447\u043a\u043e\u0432\u0430,21","ID_city":1,"code":"+37517","tel1":"293-72-27","tel2":"294-57-94 ","tel3":" ","latitude":53.911752,"longitude":27.588008},{"index":220072,"name":"\u041c\u0418\u041d\u0421\u041a-72","director":"\u0413\u0443\u043b\u0435\u0432\u0438\u0447 \u042e\u043b\u0438\u044f \u042e\u0440\u044c\u0435\u0432\u043d\u0430","adres":"\u0443\u043b. \u0410\u043a\u0430\u0434\u0435\u043c\u0438\u0447\u0435\u0441\u043a\u0430\u044f,1 \u0410\u041d \u0420\u0411","ID_city":1,"code":"+37517","tel1":"284-19-84","tel2":" ","tel3":" ","latitude":53.914192,"longitude":27.604789},{"index":220073,"name":"\u041c\u0418\u041d\u0421\u041a-73","director":"\u0428\u0435\u0432\u0435\u0440\u0435\u043d\u043a\u043e \u041e\u043b\u044c\u0433\u0430 \u0412\u043b\u0430\u0434\u0438\u043c\u0438\u0440\u043e\u0432\u043d\u0430","adres":"\u0443\u043b.\u041e\u043b\u044c\u0448\u0435\u0432\u0441\u043a\u043e\u0433\u043e,11","ID_city":1,"code":"+37517","tel1":"204-01-63","tel2":"204-79-14 ","tel3":"204-08-42","latitude":53.913693,"longitude":27.504375},{"index":220074,"name":"\u041c\u0418\u041d\u0421\u041a-74","director":"\u041c\u0435\u0442\u043b\u043e\u0432\u0430 \u041d\u0430\u0434\u0435\u0436\u0434\u0430 \u0412\u0430\u0441\u0438\u043b\u044c\u0435\u0432\u043d\u0430","adres":"\u0443\u043b.\u0411\u0435\u0440\u0443\u0442\u0430,24, \u043a\u043e\u0440.1","ID_city":1,"code":"+37517","tel1":"251-65-63","tel2":"290-83-77 ","tel3":"252-15-16","latitude":53.89909,"longitude":27.505992},